[
  {
    "stationId": "5d662059152f1371fbfaf2c8",
    "name": "70 Đường Điện Biên Phủ (Sapa Express Bus Station)",
    "address": "470 Đường Điện Biên Phủ, TT. Sa Pa, Sa Pa, Lào Cai, Vietnam",
    "city": {
      "cityId": "58bbf19db7afab000551dfc6",
      "country": "Vietnam",
      "city": "Sapa",
      "timezone": "Asia/Ho_Chi_Minh"
    },
    "latitude": 22.3397084,
    "longitude": 103.8486896
  },
  {
    "stationId": "5b1e2544eea2f50001445869",
    "name": "26 Lo Su Street (Sapa Express)",
    "address": "26 Lò Sũ, Lý Thái Tổ, Hoàn Kiếm, Hà Nội, Vietnam",
    "city": {
      "cityId": "58ade15cd8638d00070c04b2",
      "country": "Vietnam",
      "city": "Hanoi",
      "timezone": "Asia/Ho_Chi_Minh"
    },
    "latitude": 21.03138,
    "longitude": 105.855192
  },
  {
    "stationId": "5ef9fbfd682692e52bc715b7",
    "name": "Shah Alam Bus Terminal (Terminal 17)",
    "address": "Shah Alam Bus Terminal (Terminal 17), 5, Persiaran Jubli Perak, Seksyen 17, 40200 Shah Alam, Selangor, Malaysia",
    "city": {
      "cityId": "5ef9fb85ac1ea74bf8eb0ea3",
      "country": "Malaysia",
      "city": "Shah Alam",
      "timezone": "Asia/Kuala_Lumpur"
    },
    "latitude": 3.047224,
    "longitude": 101.504152
  },
  {
    "stationId": "5ef9f070e894592a4b699d0c",
    "name": "Shahab Perdana Bus Terminal",
    "address": "Shahab Perdana Bus Terminal, Jalan Sultanah Sambungan, Shahab Perdana, 05150 Alor Setar, Kedah, Malaysia",
    "city": {
      "cityId": "5ef9f03cc71ddd90c971cbd7",
      "country": "Malaysia",
      "city": "Alor Setar",
      "timezone": "Asia/Kuala_Lumpur"
    },
    "latitude": 6.140694,
    "longitude": 100.3541749
  },
  {
    "stationId": "5ef9e97ae89459391a699c14",
    "name": "Changlun Bus Station",
    "address": "Changlun Bus Station, Kampung Paya Nongmi, 06010 Changlun, Kedah, Malaysia",
    "city": {
      "cityId": "5ef9e959e89459dc4b699c13",
      "country": "Malaysia",
      "city": "Changlun",
      "timezone": "Asia/Kuala_Lumpur"
    },
    "latitude": 6.431317,
    "longitude": 100.4285081
  },
  {
    "stationId": "5ef9a761d8fe1f43b1ad3175",
    "name": "Kata Beach - Any hotel",
    "address": "Kata Beach, Karon, Mueang Phuket District, Phuket, Thailand",
    "city": {
      "cityId": "5a3928dc1fa0e60005be679d",
      "country": "Thailand",
      "city": "Phuket",
      "timezone": "Asia/Bangkok"
    },
    "latitude": 7.8206945,
    "longitude": 98.2976473
  },
  {
    "stationId": "5c20c7a9200e77d7068cd0ce",
    "name": "Bangkok Suvarnabhumi Airport (BKK)",
    "address": "Suvarnabhumi Airport, 999 1 Nong Prue, Amphoe Bang Phli, Chang Wat Samut Prakan 10540, Thailand",
    "city": {
      "cityId": "59411da43332c40005def593",
      "country": "Thailand",
      "city": "Bangkok",
      "timezone": "Asia/Bangkok"
    },
    "latitude": 13.6899991,
    "longitude": 100.7501124
  },
  {
    "stationId": "5ef8ab5ad8fe1f332ead0bfb",
    "name": "Van Minh Bus Station Cua Lo",
    "address": "Công Ty TNHH Văn Minh, Khách Sạn Thân Hoa, Đường Mai Thúc Loan, Phường Nghi Hương, Thị Xã Cửa Lò, Nghệ An, Vietnam",
    "city": {
      "cityId": "5ef8aaff6237b818c0e2ade9",
      "country": "Vietnam",
      "city": "Cua Lo",
      "timezone": "Asia/Ho_Chi_Minh"
    },
    "latitude": 18.7945867,
    "longitude": 105.7296783
  },
  {
    "stationId": "5e03678bbbc29bfab7576ee9",
    "name": "Nuoc Ngam Bus Station",
    "address": "Bến xe Nước Ngầm, Hoàng Liệt, Hoàng Mai, Hanoi, Vietnam",
    "city": {
      "cityId": "58ade15cd8638d00070c04b2",
      "country": "Vietnam",
      "city": "Hanoi",
      "timezone": "Asia/Ho_Chi_Minh"
    },
    "latitude": 20.9652223,
    "longitude": 105.8423083
  },
  {
    "stationId": "5ef89bf2b7a53cf0e9dc8841",
    "name": "Hung Vuong University",
    "address": "Hung Vuong University, Trung tâm Ngoại ngữ - Tin học HVU, Đ. Nguyễn Tất Thành, Nông Trang, Thành phố Việt Trì, Phú Thọ 29000, Vietnam",
    "city": {
      "cityId": "5ef89b8db3e8bc46c4c6db0a",
      "country": "Vietnam",
      "city": "Phu Tho",
      "timezone": "Asia/Ho_Chi_Minh"
    },
    "latitude": 21.3372741,
    "longitude": 105.3812
  },
  {
    "stationId": "5ef89ae1b3e8bc6b49c6db08",
    "name": "The Cafein",
    "address": "The Cafein, Tòa N04-B1, đường Phố Thành Thái, Cầu Giấy, Hà Nội, Vietnam",
    "city": {
      "cityId": "58ade15cd8638d00070c04b2",
      "country": "Vietnam",
      "city": "Hanoi",
      "timezone": "Asia/Ho_Chi_Minh"
    },
    "latitude": 21.0296397,
    "longitude": 105.7919947
  },
  {
    "stationId": "5ef884c9b828ff3cc9deaa9f",
    "name": "SBE Transport Terminal",
    "address": "SBE Transport Terminal, QPMV+HG Barangay San Jose, Barangay San Pedro, Puerto Princesa, Palawan, Philippines",
    "city": {
      "cityId": "58ac2d72aa3cb20006d8bd42",
      "country": "Philippines",
      "city": "Puerto Princesa",
      "timezone": "Asia/Manila"
    },
    "latitude": 9.783897399999999,
    "longitude": 118.7438077
  },
  {
    "stationId": "5ef87417b3e8bc3365c6d3d5",
    "name": "Sawasdee All Thai - Pattaya Office - Bus 777",
    "address": "Sawasdee All Thai - Pattaya Office - Bus 777, Pattayar 3rd Rd, Pattaya City, Bang Lamung District, Chon Buri 20150, Thailand",
    "city": {
      "cityId": "594ba0da42e404000782fea4",
      "country": "Thailand",
      "city": "Pattaya",
      "timezone": "Asia/Bangkok"
    },
    "latitude": 12.9483917,
    "longitude": 100.8969382
  },
  {
    "stationId": "5ef85a892aa4fb7c5ef76140",
    "name": "Market Village Hua Hin",
    "address": "Market Village Hua Hin, 234/1 Petchkasem Rd, Hua Hin, Hua Hin District, Prachuap Khiri Khan 77110, Thailand",
    "city": {
      "cityId": "59d7d7612649150005bbe8f3",
      "country": "Thailand",
      "city": "Hua Hin",
      "timezone": "Asia/Bangkok"
    },
    "latitude": 12.5576002,
    "longitude": 99.9594104
  },
  {
    "stationId": "5d021a3b4b17008444ac8414",
    "name": "Phia Nam Hue Bus Station",
    "address": "Phia Nam Hue Bus Station, 97 An Dương Vương, An Đông, Thành phố Huế, Thừa Thiên Huế, Vietnam",
    "city": {
      "cityId": "58e8ac32df758b0008ade6a6",
      "country": "Vietnam",
      "city": "Hue",
      "timezone": "Asia/Ho_Chi_Minh"
    },
    "latitude": 16.4501344,
    "longitude": 107.6060923
  },
  {
    "stationId": "5b3c7ddc7314170001ce1ba4",
    "name": "Pai Bus Station",
    "address": "Pai Bus Station, Wiang Tai, Amphoe Pai, Chang Wat Mae Hong Son 58130, Thailand",
    "city": {
      "cityId": "5b2788d758d206000193a42f",
      "country": "Thailand",
      "city": "Pai",
      "timezone": "Asia/Bangkok"
    },
    "latitude": 19.359894,
    "longitude": 98.44190549999999
  },
  {
    "stationId": "5ae0d48135a7c90001c27ce9",
    "name": "Chiang Mai Bus Terminal 2 (Arcade Bus Terminal)",
    "address": "Chiang Mai Bus Terminal 2 (Arcade Bus Terminal), 165, Soi 5, Kaeonawarat Road, Tambon Wat Ket, Amphoe Mueang Chiang Mai, 50000, Thailand",
    "city": {
      "cityId": "593ff43e3332c40005ded061",
      "country": "Thailand",
      "city": "Chiang Mai",
      "timezone": "Asia/Bangkok"
    },
    "latitude": 18.8007818,
    "longitude": 99.01725379999999
  },
  {
    "stationId": "5ef4c15a046e341484a47ee0",
    "name": "Phuong Trang FUTA Express Nam Dịnh",
    "address": "Phương Trang FUTA Express Nam Định, BX Nam Định, KM2 Điện Biên Phủ, TP. Nam Định, Nam Định, Vietnam",
    "city": {
      "cityId": "5ef1fde29de4321c440bda53",
      "country": "Vietnam",
      "city": "Nam Dinh",
      "timezone": "Asia/Ho_Chi_Minh"
    },
    "latitude": 20.436012,
    "longitude": 106.1505029
  },
  {
    "stationId": "5ef4bf9cc118d87f8a3fc98f",
    "name": "27 Chu Van An",
    "address": "27 Đ. Chu Văn An, Phường Nghĩa Thành, Gia Nghĩa, Đăk Nông, Vietnam",
    "city": {
      "cityId": "5ef4bf5e046e3418a0a47ed5",
      "country": "Vietnam",
      "city": "Dak Nong",
      "timezone": "Asia/Ho_Chi_Minh"
    },
    "latitude": 12.008397,
    "longitude": 107.6862015
  },
  {
    "stationId": "5ef4bd8235a087fdec724dc8",
    "name": "26 Le Thanh Ton",
    "address": "26 Lê Thánh Tôn, Nghĩa Chánh Nam, Quảng Ngãi, Vietnam",
    "city": {
      "cityId": "5ae9c0feab60130001ad7560",
      "country": "Vietnam",
      "city": "Quang Ngai",
      "timezone": "Asia/Ho_Chi_Minh"
    },
    "latitude": 15.1136808,
    "longitude": 108.8100997
  },
  {
    "stationId": "5ef4bbfdb5913352292ee059",
    "name": "Futa Da Lat",
    "address": "Futa Da Lat, Đường Tô Hiến Thành, Phường 3, Thành phố Đà Lạt, Lâm Đồng, Vietnam",
    "city": {
      "cityId": "5ae73c2cedaf6100011bc5cc",
      "country": "Vietnam",
      "city": "Da Lat",
      "timezone": "Asia/Ho_Chi_Minh"
    },
    "latitude": 11.9272336,
    "longitude": 108.4455729
  },
  {
    "stationId": "5d3811769b495b5ab8d9aa62",
    "name": "Phuong Trang FUTA Express Chau Doc",
    "address": "Phương Trang FUTA Express Châu Đốc, 95 Nguyễn Hữu Cảnh, Châu Phú A, Châu Đốc, An Giang, Vietnam",
    "city": {
      "cityId": "5b4852d47314170001ce5062",
      "country": "Vietnam",
      "city": "Chau Doc",
      "timezone": "Asia/Ho_Chi_Minh"
    },
    "latitude": 10.7098511,
    "longitude": 105.1181658
  },
  {
    "stationId": "5ef4b97d0cd1253d809646b5",
    "name": "Phuong Trang FUTA Express Tra Vinh",
    "address": "FUTA Express Phương Trang - Văn phòng TP Trà Vinh, 27 Nguyễn Đáng, Phường 7, Trà Vinh, Vietnam",
    "city": {
      "cityId": "5ef4b93f35a0871e1f724d89",
      "country": "Vietnam",
      "city": "Tra Vinh",
      "timezone": "Asia/Ho_Chi_Minh"
    },
    "latitude": 9.9261637,
    "longitude": 106.3341255
  },
  {
    "stationId": "5ef4b77bb591337c182edfd7",
    "name": "Phuong Trang FUTA Express Sa Dec",
    "address": "Phương Trang FUTA Express Sa Đéc, 149/8 khóm Hòa Khánh, Sa Đéc, Đồng Tháp, Vietnam",
    "city": {
      "cityId": "5ef4b74f0cd12592369646b3",
      "country": "Vietnam",
      "city": "Sa Dec",
      "timezone": "Asia/Ho_Chi_Minh"
    },
    "latitude": 10.2858446,
    "longitude": 105.7741866
  },
  {
    "stationId": "5ef4ae8e0cd12551cf964499",
    "name": "Phuong Trang FUTA Express Bao Loc",
    "address": "Phương Trang FUTA Express Bảo Lộc, 280 Trần Phú, Lộc Sơn, Bảo Lộc, Lâm Đồng, Vietnam",
    "city": {
      "cityId": "5dcbee394830f0accd30f8f4",
      "country": "Vietnam",
      "city": "Bao Loc",
      "timezone": "Asia/Ho_Chi_Minh"
    },
    "latitude": 11.5337795,
    "longitude": 107.8193856
  },
  {
    "stationId": "5ef460330cd125485e962f88",
    "name": "Coral Bay Jetty · Pulau Perhentian Kecil",
    "address": "WP78+J9 Pulau Perhentian Kecil, Besut, Terengganu, Malaysia",
    "city": {
      "cityId": "5ef4870435a087d89c723e5b",
      "country": "Malaysia",
      "city": "Pulau Perhentian Kecil, Perhentian Islands",
      "timezone": "Asia/Kuala_Lumpur"
    },
    "latitude": 5.9140625,
    "longitude": 102.7159375
  },
  {
    "stationId": "5ef45799c118d850043fb12e",
    "name": "Kai Bae Beach - Any hotel",
    "address": "Kai Bae Beach, Ko Chang, Ko Chang District, Trat 23170, Thailand",
    "city": {
      "cityId": "597dcd870c735f0005fc5ca3",
      "country": "Thailand",
      "city": "Koh Chang",
      "timezone": "Asia/Bangkok"
    },
    "latitude": 12.0296174,
    "longitude": 102.292156
  },
  {
    "stationId": "5ee8722292fa346f010657c4",
    "name": "Sunrise Beach",
    "address": "Ban Ko Adang School, Ko Tarutao, Mueang Satun District, Satun 91000, Thailand",
    "city": {
      "cityId": "5b0fd18b698ccb0001219d49",
      "country": "Thailand",
      "city": "Koh Lipe",
      "timezone": "Asia/Bangkok"
    },
    "latitude": 6.4919408,
    "longitude": 99.3089893
  },
  {
    "stationId": "597dd3b70c735f0005fc5cb3",
    "name": "Ao Sapparot Pier (Pineapple Bay Pier)",
    "address": "Ao Sapparot Pier  (Pineapple Bay Pier), Rural Rd, Koh Chang Tai, Ko Chang District, Trat 23170, Thailand",
    "city": {
      "cityId": "597dcd870c735f0005fc5ca3",
      "country": "Thailand",
      "city": "Koh Chang",
      "timezone": "Asia/Bangkok"
    },
    "latitude": 12.1420203,
    "longitude": 102.2807996
  },
  {
    "stationId": "5e9ff706fb84b45075e85fd9",
    "name": "Wat Bowonniwet Temple",
    "address": "Wat Bowonniwet Temple, 248 Phra Sumen Rd, Wat Bowon Niwet, Phra Nakhon, Bangkok 10200, Thailand",
    "city": {
      "cityId": "59411da43332c40005def593",
      "country": "Thailand",
      "city": "Bangkok",
      "timezone": "Asia/Bangkok"
    },
    "latitude": 13.760275,
    "longitude": 100.499871
  },
  {
    "stationId": "5ef21a06484a18e44278ee04",
    "name": "Coffee Ngoc Linh",
    "address": "Coffee Ngoc Linh, 02 thôn 1 xã Eakiet, Ea Kiết, Cư M'gar, Đắk Lắk, Vietnam",
    "city": {
      "cityId": "5ef219e79de4325da20bdc48",
      "country": "Vietnam",
      "city": "Dak Mil",
      "timezone": "Asia/Ho_Chi_Minh"
    },
    "latitude": 12.9412158,
    "longitude": 108.0222928
  },
  {
    "stationId": "5ef214a6dc1fc80b6cf51b0a",
    "name": "8 Tran Anh Tong",
    "address": "8 Trần Anh Tông, Lộc Hoà, TP. Nam Định, Nam Định, Vietnam",
    "city": {
      "cityId": "5ef1fde29de4321c440bda53",
      "country": "Vietnam",
      "city": "Nam Dinh",
      "timezone": "Asia/Ho_Chi_Minh"
    },
    "latitude": 20.4352127,
    "longitude": 106.1525867
  },
  {
    "stationId": "5ef214697f3c9740fa8def8c",
    "name": "198 Tran Khat Chan",
    "address": "198 Trần Khát Chân, Thanh Nhàn, Hai Bà Trưng, Hà Nội, Vietnam",
    "city": {
      "cityId": "58ade15cd8638d00070c04b2",
      "country": "Vietnam",
      "city": "Hanoi",
      "timezone": "Asia/Ho_Chi_Minh"
    },
    "latitude": 21.0090209,
    "longitude": 105.8602385
  },
  {
    "stationId": "5ef20fd829da2b859aa9cd19",
    "name": "Moc Chau Bus Station",
    "address": "Moc Chau Bus Station, Bến Xe Mộc Châu, Tô Hiệu, TT. Mộc Châu, Mộc Châu, Sơn La, Vietnam",
    "city": {
      "cityId": "5b16b4d2425af900013ac1c2",
      "country": "Vietnam",
      "city": "Moc Chau",
      "timezone": "Asia/Ho_Chi_Minh"
    },
    "latitude": 20.8450688,
    "longitude": 104.6453075
  },
  {
    "stationId": "5ef203069de432ec410bdb34",
    "name": "522 Tran Phu",
    "address": "522 Trần Phú, Phường 7, Bạc Liêu, Vietnam",
    "city": {
      "cityId": "5ef202d8035a501722b17668",
      "country": "Vietnam",
      "city": "Bac Lieu",
      "timezone": "Asia/Ho_Chi_Minh"
    },
    "latitude": 9.3042112,
    "longitude": 105.7212114
  },
  {
    "stationId": "5be02bf3f8f4840fcb26b1d6",
    "name": "Ngoc Anh Bus Station",
    "address": "Trạm Xe NGỌC ÁNH, 28 ĐƯỜNG SỐ 6, KDC BÌNH ĐĂNG, PHƯỜNG 6, QUẬN 8 ĐỐI DIỆN BẾN XE QUẬN 8 Chung Cư Pegasuite, Hồ Chí Minh, Vietnam",
    "city": {
      "cityId": "5914568b40355d00058933d7",
      "country": "Vietnam",
      "city": "Ho Chi Minh (Saigon)",
      "timezone": "Asia/Ho_Chi_Minh"
    },
    "latitude": 10.7340794,
    "longitude": 106.6542129
  },
  {
    "stationId": "5ef1fe179de43265a80bda54",
    "name": "Big C Supermarket Nam Dinh",
    "address": "Big C Nam Định, trung tâm thương mại Thiên Trường, QL10, Lộc Hoà, TP. Nam Định, Vietnam",
    "city": {
      "cityId": "5ef1fde29de4321c440bda53",
      "country": "Vietnam",
      "city": "Nam Dinh",
      "timezone": "Asia/Ho_Chi_Minh"
    },
    "latitude": 20.4378666,
    "longitude": 106.1526181
  },
  {
    "stationId": "5b0563dcae03ff00017ad8a2",
    "name": "Halong Clock Tower",
    "address": "Clock Tower/Roundabout, P. Bạch Đằng, Thành phố Hạ Long, Quảng Ninh, Vietnam",
    "city": {
      "cityId": "58ade161b626ad00060bd174",
      "country": "Vietnam",
      "city": "Halong Bay",
      "timezone": "Asia/Ho_Chi_Minh"
    },
    "latitude": 20.9516184,
    "longitude": 107.085184
  },
  {
    "stationId": "5ef1f776dc1fc8a238f5186b",
    "name": "Nui Ba office",
    "address": "4 Vòng quanh khu du lịch Núi Bà, Thạnh Tân, Tây Ninh, Vietnam",
    "city": {
      "cityId": "5ef1f73814d1f39a1a517563",
      "country": "Vietnam",
      "city": "Tay Ninh",
      "timezone": "Asia/Ho_Chi_Minh"
    },
    "latitude": 11.3638021,
    "longitude": 106.1672833
  },
  {
    "stationId": "5ef1f6d59de432759d0bda26",
    "name": "725 Truong Chinh",
    "address": "725 Trường Chinh, Tây Thạnh, Tân Phú, Hồ Chí Minh, Vietnam",
    "city": {
      "cityId": "5914568b40355d00058933d7",
      "country": "Vietnam",
      "city": "Ho Chi Minh (Saigon)",
      "timezone": "Asia/Ho_Chi_Minh"
    },
    "latitude": 10.8087648,
    "longitude": 106.6339841
  },
  {
    "stationId": "5ef1d8a8e1355c4de7f3dc5e",
    "name": "Hiep Hoa south bus station",
    "address": "Hiep Hoa south bus station, QL37, Lương Phong, Hiệp Hòa, Bắc Giang, Vietnam",
    "city": {
      "cityId": "5ef1d893dc1fc85aaef51604",
      "country": "Vietnam",
      "city": "Thang",
      "timezone": "Asia/Ho_Chi_Minh"
    },
    "latitude": 21.3466517,
    "longitude": 105.9905577
  },
  {
    "stationId": "5ef1d400e1355c25c2f3dbd0",
    "name": "Big C Thang Long Supermarket",
    "address": "Big C Thăng Long Supermarket, 222 Trần Duy Hưng, Trung Hoà, Cầu Giấy, Hà Nội 100000, Vietnam",
    "city": {
      "cityId": "58ade15cd8638d00070c04b2",
      "country": "Vietnam",
      "city": "Hanoi",
      "timezone": "Asia/Ho_Chi_Minh"
    },
    "latitude": 21.0073525,
    "longitude": 105.7932144
  },
  {
    "stationId": "5ef1c8c49de43228240bd659",
    "name": "Ferry Terminal · Pulau Perhentian Besar",
    "address": "Ferry Terminal, Pulau Perhentian Besar, Teluk Pauh, Terengganu, Malaysia",
    "city": {
      "cityId": "5ef1c869035a504ab7b1721d",
      "country": "Malaysia",
      "city": "Pulau Perhentian Besar, Perhentian Islands",
      "timezone": "Asia/Kuala_Lumpur"
    },
    "latitude": 5.9028374,
    "longitude": 102.7412743
  },
  {
    "stationId": "5ef0cb4164995eec672c63d5",
    "name": "Tourist Information Center · Alona Beach",
    "address": "Tourist Information Center, Panglao Island Circumferential Road, Alona Beach Rd, Bohol, Philippines",
    "city": {
      "cityId": "5d19fbf88e27e53840453cbe",
      "country": "Philippines",
      "city": "Panglao, Bohol",
      "timezone": "Asia/Manila"
    },
    "latitude": 9.552437,
    "longitude": 123.773383
  },
  {
    "stationId": "5ef0c5a8152605d46458b4e3",
    "name": "Integrated Bus Terminal · Tagbilaran City",
    "address": "Integrated Bus Terminal, Alfonso L. Uy St, Dao, Dakabayan sa Tagbilaran, 6300 Lalawigan ng , Bohol, Philippines",
    "city": {
      "cityId": "58ac2da7aa3cb20006d8bd44",
      "country": "Philippines",
      "city": "Tagbilaran City, Bohol Island",
      "timezone": "Asia/Manila"
    },
    "latitude": 9.656419,
    "longitude": 123.871484
  },
  {
    "stationId": "5c9b9cb3d549d26ba1810560",
    "name": "Ceuta Port",
    "address": "Baleària Ceuta, Estación Marítima s/n, 51001 Ceuta, Spain",
    "city": {
      "cityId": "5c9b9c6bdd2d649f7c8dcefe",
      "country": "Spain",
      "city": "Ceuta",
      "timezone": "Europe/Madrid"
    },
    "latitude": 35.8937073,
    "longitude": -5.3208947
  },
  {
    "stationId": "5c9b8d58dd2d64f1128dbd47",
    "name": "Algeciras Port",
    "address": "Baleària Algeciras, Puerto de Algeciras, Estación Marítima, Locales F4 y F23, 11207 Algeciras, Cádiz, Spain",
    "city": {
      "cityId": "5c9b8bf9dd2d640a088dbbf9",
      "country": "Spain",
      "city": "Algeciras",
      "timezone": "Europe/Madrid"
    },
    "latitude": 36.130438,
    "longitude": -5.4398149
  },
  {
    "stationId": "5c9b95582b61ac07a3f8e256",
    "name": "Palma Port",
    "address": "Baleària Palma, Muelle Peraires, Estación Marítima, 3, 07015 Palma, Islas Baleares, Spain",
    "city": {
      "cityId": "5c9b94e5d549d217ee80fd5f",
      "country": "Spain",
      "city": "Palma de Mallorca",
      "timezone": "Europe/Madrid"
    },
    "latitude": 39.551898,
    "longitude": 2.625393
  },
  {
    "stationId": "5c9b956dd549d22f4180fe50",
    "name": "Valencia Port",
    "address": "Baleària València, Estació Marítima · Moll de la Túria, 46024 Valencia, Spain",
    "city": {
      "cityId": "5c9b9452d549d2776d80fc1d",
      "country": "Spain",
      "city": "Valencia",
      "timezone": "Europe/Madrid"
    },
    "latitude": 39.4463739,
    "longitude": -0.3254942
  },
  {
    "stationId": "5c9b7b1ad549d2250680da7b",
    "name": "Melilla Port",
    "address": "Melilla, Calle Muelle de Ribera, nº1, 52001 Melilla, Spain",
    "city": {
      "cityId": "5c9b79482b61acd6b1f8c5b2",
      "country": "Spain",
      "city": "Melilla",
      "timezone": "Europe/Madrid"
    },
    "latitude": 35.2916308,
    "longitude": -2.9325533
  },
  {
    "stationId": "5c9b7b5edd2d64b9228da96f",
    "name": "Malaga Port",
    "address": "Baleària Málaga, Avenida de Manuel Agustín Heredia, 1, 29001 Málaga, Spain",
    "city": {
      "cityId": "5c9b7854dd2d64564d8da63d",
      "country": "Spain",
      "city": "Malaga",
      "timezone": "Europe/Madrid"
    },
    "latitude": 36.7160314,
    "longitude": -4.419461399999999
  },
  {
    "stationId": "5c9c9176d549d25be181ad66",
    "name": "Formentera Port",
    "address": "Baleària Formentera, Estación Marítima, 07870 La Savina, Islas Baleares, Islas Baleares, Spain",
    "city": {
      "cityId": "5c892d07d22d0dd6da3eddd7",
      "country": "Spain",
      "city": "Formentera Island",
      "timezone": "Europe/Madrid"
    },
    "latitude": 38.734602,
    "longitude": 1.416463
  },
  {
    "stationId": "5c9b61ec2b61acca85f8acc3",
    "name": "Baleària Barcelona Port",
    "address": "Baleària Barcelona, Estació Marítima Drassanes, s/n, 08039 Barcelona, Spain",
    "city": {
      "cityId": "5c9b60ced549d24dc280c0f2",
      "country": "Spain",
      "city": "Barcelona",
      "timezone": "Europe/Madrid"
    },
    "latitude": 41.373492,
    "longitude": 2.1782234
  },
  {
    "stationId": "5ef077a7e6cad9f8cb68a650",
    "name": "Buliluyan Port (Philippine Ports Authority)",
    "address": "Buliluyan Port (Philippine Ports Authority), Bataraza, Palawan, Philippines",
    "city": {
      "cityId": "5ef0779064995e91c72c5118",
      "country": "Philippines",
      "city": "Buliluyan, Palawan",
      "timezone": "Asia/Manila"
    },
    "latitude": 8.334669,
    "longitude": 117.2073948
  },
  {
    "stationId": "5ef076289cbf5d1cccb89fd7",
    "name": "Liminangcong - Any hotel",
    "address": "Liminancong, Taytay, Palawan, Philippines",
    "city": {
      "cityId": "5ef068b40cec2b1073464356",
      "country": "Philippines",
      "city": "Liminangcong, Palawan",
      "timezone": "Asia/Manila"
    },
    "latitude": 10.99481,
    "longitude": 119.3619
  },
  {
    "stationId": "5ef06905dae4e9e915e2d4d1",
    "name": "Liminangcong Port",
    "address": "Liminangcong Port, 2855+63 Taytay, Palawan, Philippines",
    "city": {
      "cityId": "5ef068b40cec2b1073464356",
      "country": "Philippines",
      "city": "Liminangcong, Palawan",
      "timezone": "Asia/Manila"
    },
    "latitude": 11.0080644,
    "longitude": 119.3076299
  },
  {
    "stationId": "5db8273c0fa3cace56a5ab7b",
    "name": "San Vicente Public Market",
    "address": "San Vicente Public Market, Poblacion San Vicente, San Vicente, Palawan, Philippines",
    "city": {
      "cityId": "5ae8d5e4ab60130001ad7021",
      "country": "Philippines",
      "city": "San Vicente, Palawan Island",
      "timezone": "Asia/Manila"
    },
    "latitude": 10.5281034,
    "longitude": 119.2539311
  },
  {
    "stationId": "5afbf04efcb6f50001772742",
    "name": "Puerto Princesa City - Any hotel",
    "address": "Puerto Princesa City, Palawan, Philippines",
    "city": {
      "cityId": "58ac2d72aa3cb20006d8bd42",
      "country": "Philippines",
      "city": "Puerto Princesa",
      "timezone": "Asia/Manila"
    },
    "latitude": 9.7638429,
    "longitude": 118.7473298
  },
  {
    "stationId": "5eef742374b9fda017733786",
    "name": "Terminal de Transportes de Sogamoso",
    "address": "Terminal de Transportes de Sogamoso, Cra. 17 ##11-123, Sogamoso, Boyacá, Colombia",
    "city": {
      "cityId": "5eef73f474b9fddfb7733730",
      "country": "Colombia",
      "city": "Sogamoso",
      "timezone": "America/Bogota"
    },
    "latitude": 5.718372,
    "longitude": -72.933538
  },
  {
    "stationId": "5eef706c74b9fddadb7334e0",
    "name": "Terminal de Transporte Duitama",
    "address": "Terminal de Transporte Duitama, Cl. 5 #36b-140, Duitama, Boyacá, Colombia",
    "city": {
      "cityId": "5eef6ffc43d16a12b49dd25a",
      "country": "Colombia",
      "city": "Duitama",
      "timezone": "America/Bogota"
    },
    "latitude": 5.8075201,
    "longitude": -73.0321886
  },
  {
    "stationId": "5e7398181e37e0dc1ed2ded6",
    "name": "Terminal de Transporte de Pereira",
    "address": "Terminal de Transporte de Pereira, Velotax, Calle, 17 N°, 23-157, Pereira, Risaralda, Colombia",
    "city": {
      "cityId": "5e7396943046df336062f543",
      "country": "Colombia",
      "city": "Pereira",
      "timezone": "America/Bogota"
    },
    "latitude": 4.8023643,
    "longitude": -75.69322389999999
  },
  {
    "stationId": "5eef4e33915f6b609dca8351",
    "name": "Terminal de Transportes de Buenaventura",
    "address": "Terminal de Transportes de Buenaventura, Cra. 5 #7-32, Buenaventura, Valle del Cauca, Colombia",
    "city": {
      "cityId": "5e7396f047c590730a23432b",
      "country": "Colombia",
      "city": "Buenaventura",
      "timezone": "America/Bogota"
    },
    "latitude": 3.8897954,
    "longitude": -77.07376219999999
  },
  {
    "stationId": "5eef21bcda6ada4a7b714325",
    "name": "30 Le Thi Hong Gam",
    "address": "30 Lê Thị Hồng Gấm, Trần Phú, Thành phố Qui Nhơn, Bình Định, Vietnam",
    "city": {
      "cityId": "5afd6db1a6a9a00001c0aed9",
      "country": "Vietnam",
      "city": "Quy Nhon",
      "timezone": "Asia/Ho_Chi_Minh"
    },
    "latitude": 13.7679235,
    "longitude": 109.2231607
  },
  {
    "stationId": "5c892bd2d22d0d15783edcc0",
    "name": "Trasmapi, Ibiza Port",
    "address": "Trasmapi, Ibiza Port, Avinguda de Santa Eulària des Riu, 23, 17, 07800 Eivissa, Illes Balears, Spain",
    "city": {
      "cityId": "5c892b562f4b9a69781ed3f3",
      "country": "Spain",
      "city": "Ibiza",
      "timezone": "Europe/Madrid"
    },
    "latitude": 38.9154581,
    "longitude": 1.4365991
  },
  {
    "stationId": "5eeeff6a7cab9be5758716f8",
    "name": "Isla Baru - Any hotel on the peninsula",
    "address": "Isla Baru, Cartagena Province, Bolivar, Colombia",
    "city": {
      "cityId": "5eeeff33910901055d748546",
      "country": "Colombia",
      "city": "Isla Baru",
      "timezone": "America/Bogota"
    },
    "latitude": 10.2161111,
    "longitude": -75.6002778
  },
  {
    "stationId": "5eeb64130ff761293ead9949",
    "name": "Cartagena - Any hotel in Historical Center, Bocagrande, El Laguito, Manga and Pie de Popa",
    "address": "Cartagena Old City, Cartagena Province, Bolivar, Colombia",
    "city": {
      "cityId": "5cab051bb62a4461790333a6",
      "country": "Colombia",
      "city": "Cartagena",
      "timezone": "America/Bogota"
    },
    "latitude": 10.4235476,
    "longitude": -75.5505134
  },
  {
    "stationId": "5eeb5b9d7bc13bf6de2f403d",
    "name": "Cartagena - Any hotel in La Boquilla",
    "address": "La Boquilla, Cartagena Province, Bolivar, Colombia",
    "city": {
      "cityId": "5cab051bb62a4461790333a6",
      "country": "Colombia",
      "city": "Cartagena",
      "timezone": "America/Bogota"
    },
    "latitude": 10.471126,
    "longitude": -75.49687
  },
  {
    "stationId": "5eeb5a75e1536568298945b4",
    "name": "Cartagena - Any hotel in the Historical Center",
    "address": "Historical Center, Cartagena, Cartagena Province, Bolivar, Colombia",
    "city": {
      "cityId": "5cab051bb62a4461790333a6",
      "country": "Colombia",
      "city": "Cartagena",
      "timezone": "America/Bogota"
    },
    "latitude": 10.423275,
    "longitude": -75.55158080000001
  },
  {
    "stationId": "5eeb56bb7bc13b25312f3fbd",
    "name": "Parque Tayrona - Any hotel",
    "address": "Parque Tayrona, Magdalena, Colombia",
    "city": {
      "cityId": "5cb7327f273a9a43985f96e2",
      "country": "Colombia",
      "city": "Santa Marta",
      "timezone": "America/Bogota"
    },
    "latitude": 11.3064409,
    "longitude": -74.0657561
  },
  {
    "stationId": "5b2a19208edfa3000136eeca",
    "name": "Dien Bien Bus station",
    "address": "Bến xe khách Điện Biên, Mường Thanh, Điện Biên Phủ, Dien Bien, Vietnam",
    "city": {
      "cityId": "5afad4e0751ee900012387a8",
      "country": "Vietnam",
      "city": "Dien Bien Phu",
      "timezone": "Asia/Ho_Chi_Minh"
    },
    "latitude": 21.3926787,
    "longitude": 103.0102587
  },
  {
    "stationId": "5eeb386ee1536515bc894234",
    "name": "AgriBank Sun Mu Cang Chai",
    "address": "AgriBank Sun Mu Cang Chai, QL32, TT. Mà Căng Chải, Mù Cang Chải, Yên Bái, Vietnam",
    "city": {
      "cityId": "5d2de8fc734def84312a4243",
      "country": "Vietnam",
      "city": "Mu Cang Chai",
      "timezone": "Asia/Ho_Chi_Minh"
    },
    "latitude": 21.850901,
    "longitude": 104.0888306
  },
  {
    "stationId": "5eeb25d75e4dcf668bd61d52",
    "name": "Terminal de Valledupar",
    "address": "Terminal de Valledupar, Valledupar, Cesar, Colombia",
    "city": {
      "cityId": "5eeb25987bc13b55ed2f3b65",
      "country": "Colombia",
      "city": "Valledupar",
      "timezone": "America/Bogota"
    },
    "latitude": 10.4449827,
    "longitude": -73.24312909999999
  },
  {
    "stationId": "5eeb2130486d5b01e627f2e1",
    "name": "International  Harbor Tuan Chau",
    "address": "Cảng Tầu Quốc Tế Tuần Châu 02, Ngọc Châu, Tuần Châu, Thành phố Hạ Long, Quảng Ninh",
    "city": {
      "cityId": "5b210f4bd3136d00010cb03f",
      "country": "Vietnam",
      "city": "Tuan Chau Island",
      "timezone": "Asia/Ho_Chi_Minh"
    },
    "latitude": 20.9258946,
    "longitude": 106.9819853
  },
  {
    "stationId": "5cab102cdb310a637385f735",
    "name": "Terminal de Transport Salitre Bogota",
    "address": "Terminal de Transport Salitre, Peatonal Terminal, Bogotá, Colombia",
    "city": {
      "cityId": "5cab041e2a307eac4cea0cf2",
      "country": "Colombia",
      "city": "Bogota",
      "timezone": "America/Bogota"
    },
    "latitude": 4.6532161,
    "longitude": -74.11464269999999
  },
  {
    "stationId": "5ee9e3a2ec1e291921d63822",
    "name": "Trang An- Any Hotel",
    "address": "Trang An Scenic Landscap Complex, Tràng An, Trường Yên, Hoa Lư, Ninh Bình, Vietnam",
    "city": {
      "cityId": "5a5b66c1aaa0ed0008a7ea0c",
      "country": "Vietnam",
      "city": "Ninh Binh",
      "timezone": "Asia/Ho_Chi_Minh"
    },
    "latitude": 20.252575,
    "longitude": 105.918375
  },
  {
    "stationId": "5ee9dd8219f1a966c18ead05",
    "name": "Terminal De Transporte Maicao",
    "address": "Terminal de Transporte Maicao, Cl. 16 #10- 27, Maicao, La Guajira, Colombia",
    "city": {
      "cityId": "5ee9dd55fc69811383d09399",
      "country": "Colombia",
      "city": "Maicao",
      "timezone": "America/Bogota"
    },
    "latitude": 11.3810095,
    "longitude": -72.2380502
  },
  {
    "stationId": "5ee9dbf8ec1e2938d7d63752",
    "name": "Terminal De Buses Mompos",
    "address": "Terminal De Buses, Santa Cruz de Mompox, Mompós, Bolivar, Colombia",
    "city": {
      "cityId": "5ee9dbd1e2c28e8e646b5782",
      "country": "Colombia",
      "city": "Mompos",
      "timezone": "America/Bogota"
    },
    "latitude": 9.2372035,
    "longitude": -74.4277403
  },
  {
    "stationId": "5d18a01fa9734bd395acbe35",
    "name": "Terminal de Transportes de Cartagena",
    "address": "Terminal de Transportes de Cartagena, Calle 1A #3-89, Cartagena, Provincia de Cartagena, Bolívar, Colombia",
    "city": {
      "cityId": "5cab051bb62a4461790333a6",
      "country": "Colombia",
      "city": "Cartagena",
      "timezone": "America/Bogota"
    },
    "latitude": 10.40043,
    "longitude": -75.45912
  },
  {
    "stationId": "5ee9d52b19f1a94dde8ea344",
    "name": "Terminal Metropolitana de Transportes de Barranquilla",
    "address": "Terminal Metropolitana de Transportes de Barranquilla, Carrera 14 54-186 Modulo C, P- 2, Barranquilla, Atlántico, Colombia",
    "city": {
      "cityId": "5cab06e2db310a969185ed71",
      "country": "Colombia",
      "city": "Barranquilla",
      "timezone": "America/Bogota"
    },
    "latitude": 10.9086319,
    "longitude": -74.79381339999999
  },
  {
    "stationId": "5ee9d51f19f1a999d18ea2f7",
    "name": "Khánh An Limousine Ninh Bình",
    "address": "Khánh An Limousine Ninh Bình, Phố 4 Lương Văn Thăng, Đông Thành, Ninh Bình, 434180, Vietnam",
    "city": {
      "cityId": "5a5b66c1aaa0ed0008a7ea0c",
      "country": "Vietnam",
      "city": "Ninh Binh",
      "timezone": "Asia/Ho_Chi_Minh"
    },
    "latitude": 20.2644906,
    "longitude": 105.9779467
  },
  {
    "stationId": "5ee9d409ec1e296107d62d21",
    "name": "Terminal De Transporte Monteria",
    "address": "Terminal De Transporte Monteria, Cl. 41 #15-20, Montería, Córdoba, Colombia",
    "city": {
      "cityId": "5ee9d3e8fc69817fbfd087f1",
      "country": "Colombia",
      "city": "Monteria",
      "timezone": "America/Bogota"
    },
    "latitude": 8.748885,
    "longitude": -75.8672217
  },
  {
    "stationId": "5ee8bac1c157dda8c6815c35",
    "name": "Terminal De Ómnibus Cmte. Luis Piedrabuena",
    "address": "Terminal De Ómnibus Cmte. Luis Piedrabuena, Av. Gregorio Ibañez 157, Cmte. Luis Piedrabuena, Santa Cruz, Argentina",
    "city": {
      "cityId": "5ee8b45892fa34d566065ffc",
      "country": "Argentina",
      "city": "Cmte. Luis Piedrabuena",
      "timezone": "America/Argentina/Rio_Gallegos"
    },
    "latitude": -49.9826948,
    "longitude": -68.90887529999999
  },
  {
    "stationId": "5ee8bf3ad57c9b4c05ed8c31",
    "name": "Terminal de Omnibus El Calafate",
    "address": "Terminal de Omnibus El Calafate, Calle 510 87, Z9405 El Calafate, Santa Cruz, Argentina",
    "city": {
      "cityId": "5ee8ba7521fb6d419d31d9fe",
      "country": "Argentina",
      "city": "El Calafate",
      "timezone": "America/Argentina/Rio_Gallegos"
    },
    "latitude": -50.3374028,
    "longitude": -72.24520319999999
  },
  {
    "stationId": "5ee8becbb567195bf86be23d",
    "name": "Terminal de Buses Hualpén",
    "address": "Terminal de Buses Hualpén, Rómulo Correa 602, Punta Arenas, Magallanes y la Antártica Chilena, Chile",
    "city": {
      "cityId": "5ee8ba3ad57c9b4bf7ed8bb0",
      "country": "Chile",
      "city": "Punta Arenas",
      "timezone": "America/Santiago"
    },
    "latitude": -53.1430303,
    "longitude": -70.9147701
  },
  {
    "stationId": "5ee8be8bd57c9bf07bed8c2f",
    "name": "Terminal de Omnibus de Ushuaia",
    "address": "Terminal de Omnibus de Ushuaia, Av. Maipú & Juana Genoveva Fadul, V9410 Ushuaia, Tierra del Fuego, Argentina",
    "city": {
      "cityId": "5ee8b9f092fa34e64f06601e",
      "country": "Argentina",
      "city": "Ushuaia",
      "timezone": "America/Argentina/Ushuaia"
    },
    "latitude": -54.8081158,
    "longitude": -68.3060722
  },
  {
    "stationId": "5ee8be4ec3443005a469790e",
    "name": "Terminal de Rio Grande",
    "address": "Terminal de Rio Grande,Rafael Obligado 1300-1398, Río Grande, Tierra del Fuego, Argentina",
    "city": {
      "cityId": "5ee8b987b56719c6b86be15b",
      "country": "Argentina",
      "city": "Rio Grande",
      "timezone": "America/Argentina/Rio_Gallegos"
    },
    "latitude": -53.7843732,
    "longitude": -67.7173474
  },
  {
    "stationId": "5ee8bda792fa34a680066080",
    "name": "Rodoviario Puerto Natales Bus Station",
    "address": "Rodoviario Puerto Natales Bus Station, Puerto Natales, Natales, Magallanes and Chilean Antarctica, Chile",
    "city": {
      "cityId": "5ee8b946c157dd771a815c22",
      "country": "Chile",
      "city": "Puerto Natales",
      "timezone": "America/Santiago"
    },
    "latitude": -51.72864569999999,
    "longitude": -72.4883961
  },
  {
    "stationId": "5ee8bd53c157dd4d08815c7d",
    "name": "Rio Turbio Bus stop",
    "address": "Av. de los Mineros 262, Río Turbio, San Juan, Argentina",
    "city": {
      "cityId": "5ee8b90c92fa3415b206601d",
      "country": "Argentina",
      "city": "Rio Turbio",
      "timezone": "America/Argentina/Rio_Gallegos"
    },
    "latitude": -51.5359649,
    "longitude": -72.3379862
  },
  {
    "stationId": "5ee8bd07c157ddef2f815c77",
    "name": "Terminal de Omnibus de Los Antiguos",
    "address": "Terminal de Omnibus de Los Antiguos, Los Antiguos, Santa Cruz Province, Argentina",
    "city": {
      "cityId": "5ee8b8de21fb6d983e31d9d7",
      "country": "Argentina",
      "city": "Los Antiguos",
      "timezone": "America/Argentina/Rio_Gallegos"
    },
    "latitude": -46.5439212,
    "longitude": -71.6246476
  },
  {
    "stationId": "5ee8bce392fa344b4706607f",
    "name": "Bus Terminal Perito Moreno",
    "address": "Bus Terminal Perito Moreno, Perito Moreno, Santa Cruz Province, Argentina",
    "city": {
      "cityId": "5ee8b8a2b56719225d6be15a",
      "country": "Argentina",
      "city": "Perito Moreno",
      "timezone": "America/Argentina/Rio_Gallegos"
    },
    "latitude": -46.5824469,
    "longitude": -70.92823899999999
  },
  {
    "stationId": "5ee8bc6821fb6db82431da31",
    "name": "Terminal Omnibus Las Heras Santa Cruz",
    "address": "Terminal Omnibus Las Heras Santa Cruz, Las Heras, Santa Cruz Province, Argentina",
    "city": {
      "cityId": "5ee8b7af21fb6d7f4931d978",
      "country": "Argentina",
      "city": "Las Heras",
      "timezone": "America/Argentina/Rio_Gallegos"
    },
    "latitude": -46.5378274,
    "longitude": -68.93503919999999
  },
  {
    "stationId": "5ee8bc20d57c9b21aaed8be7",
    "name": "Terminal De Omnibus Pico Truncado",
    "address": "Terminal De Omnibus Pico Truncado, Pico Truncado, Santa Cruz Province, Argentina",
    "city": {
      "cityId": "5ee8b70992fa34e04e06601a",
      "country": "Argentina",
      "city": "Pico Truncado",
      "timezone": "America/Argentina/Rio_Gallegos"
    },
    "latitude": -46.7974273,
    "longitude": -67.9477771
  },
  {
    "stationId": "5ee8bbf1d57c9b7501ed8be6",
    "name": "Terminal de Ómnibus de Caleta Olivia",
    "address": "Terminal de Ómnibus de Caleta Olivia, Av. de los Inmigrantes, Caleta Olivia, Santa Cruz, Argentina",
    "city": {
      "cityId": "5ee8b674b56719b5ee6be0e1",
      "country": "Argentina",
      "city": "Caleta Olivia",
      "timezone": "America/Argentina/Rio_Gallegos"
    },
    "latitude": -46.4389613,
    "longitude": -67.5406371
  },
  {
    "stationId": "5ee8bbbdc157dd9b07815c6d",
    "name": "Despensa El Vasco",
    "address": "Despensa El Vasco, Florentino Ameghino, Fitz Roy, Santa Cruz, Argentina",
    "city": {
      "cityId": "5ee8b5d3d57c9b79faed8b21",
      "country": "Argentina",
      "city": "Fitz Roy",
      "timezone": "America/Argentina/Rio_Gallegos"
    },
    "latitude": -47.02592010000001,
    "longitude": -67.2479594
  },
  {
    "stationId": "5ee8bb87d57c9b9003ed8be5",
    "name": "Tres Cerros Bus Stop",
    "address": "Tres Cerros, Santa Cruz Province, Argentina",
    "city": {
      "cityId": "5ee8b52bc157dd0685815b92",
      "country": "Argentina",
      "city": "Tres Cerros",
      "timezone": "America/Argentina/Rio_Gallegos"
    },
    "latitude": -48.1434626,
    "longitude": -67.6523782
  },
  {
    "stationId": "5ee8bb4cd57c9bb732ed8be2",
    "name": "La Terminal",
    "address": "La Terminal, Puerto San Julián, Santa Cruz Province, Argentina",
    "city": {
      "cityId": "5ee8b4e292fa34e232065ffd",
      "country": "Argentina",
      "city": "Puerto San Julian",
      "timezone": "America/Argentina/Rio_Gallegos"
    },
    "latitude": -49.3040533,
    "longitude": -67.7367904
  },
  {
    "stationId": "5ee8b3a992fa34f3b4065ffb",
    "name": "Terminal De Ómnibus De Rio Gallegos",
    "address": "Terminal De Ómnibus De Rio Gallegos, Eva Perón 1451-1499, Río Gallegos, Santa Cruz, Argentina",
    "city": {
      "cityId": "5ee8b26221fb6d4f3831d6fb",
      "country": "Argentina",
      "city": "Rio Gallegos",
      "timezone": "America/Argentina/Rio_Gallegos"
    },
    "latitude": -51.6277273,
    "longitude": -69.2474926
  },
  {
    "stationId": "5b6aa21eebb054855253321b",
    "name": "Koh Tarutao pier",
    "address": "PJ3W+FF Ko Tarutao, Mueang Satun District, Satun, Thailand",
    "city": {
      "cityId": "5b6aa1d1768c2e78befe9be9",
      "country": "Thailand",
      "city": "Koh Tarutao",
      "timezone": "Asia/Bangkok"
    },
    "latitude": 6.7036875,
    "longitude": 99.6461875
  },
  {
    "stationId": "5ee22709ecf9fbc705d8069d",
    "name": "Titumate Pier",
    "address": "Titumate Pier, Titumate, Acandí, Choco, Colombia",
    "city": {
      "cityId": "5edf3e542abaa06543a566d9",
      "country": "Colombia",
      "city": "Titumate",
      "timezone": "America/Bogota"
    },
    "latitude": 8.3064092,
    "longitude": -77.0757303
  },
  {
    "stationId": "5ee7a2aae5fbcc0a1f8009f0",
    "name": "Koh Kradan Beach",
    "address": "Koh Kradan Beach, Ko Libong, Kantang District, Trang 92110, Thailand",
    "city": {
      "cityId": "5b152097b41e91000115f4cf",
      "country": "Thailand",
      "city": "Koh Kradan",
      "timezone": "Asia/Bangkok"
    },
    "latitude": 7.3124072,
    "longitude": 99.25688889999999
  },
  {
    "stationId": "5ee796806b8ed309c1bd4989",
    "name": "Satun Bus Station",
    "address": "Satun Bus Station, 111 Rat Uthit Road, Phiman, Mueang Satun District, Satun 91000, Thailand",
    "city": {
      "cityId": "5ac1f59b3d2ca800015e2e6f",
      "country": "Thailand",
      "city": "Satun",
      "timezone": "Asia/Bangkok"
    },
    "latitude": 6.596988199999999,
    "longitude": 100.0665822
  },
  {
    "stationId": "5ee76e984dc5990be4787e04",
    "name": "24 Thac Bac",
    "address": "24 Thác Bạc ,TT. Sa Pa, Sa Pa, Lào Cai, Vietnam",
    "city": {
      "cityId": "58bbf19db7afab000551dfc6",
      "country": "Vietnam",
      "city": "Sapa",
      "timezone": "Asia/Ho_Chi_Minh"
    },
    "latitude": 22.336079,
    "longitude": 103.83743
  },
  {
    "stationId": "5ee76e404dc5993ea4787e02",
    "name": "FPT shop",
    "address": "FPT shop, 80 Trần Nhật Duật, Đồng Xuân, Hoàn Kiếm, Hà Nội, Vietnam",
    "city": {
      "cityId": "58ade15cd8638d00070c04b2",
      "country": "Vietnam",
      "city": "Hanoi",
      "timezone": "Asia/Ho_Chi_Minh"
    },
    "latitude": 21.0375495,
    "longitude": 105.8525881
  },
  {
    "stationId": "5d78bb375f281a52a44a3896",
    "name": "Phantip Company Office (Nathon Pier)",
    "address": "Phantip Company Office, Tambon Ang Thong, Amphoe Ko Samui, Chang Wat Surat Thani 84140, Thailand",
    "city": {
      "cityId": "597dcda50c735f0005fc5ca4",
      "country": "Thailand",
      "city": "Koh Samui",
      "timezone": "Asia/Bangkok"
    },
    "latitude": 9.5373592,
    "longitude": 99.9357758
  },
  {
    "stationId": "5d072a06b189005c312e0608",
    "name": "Da Nang Central Bus Station",
    "address": "Da Nang Central Bus Station, Bến Xe Trung Tâm Đà Nẵng, Tôn Đức Thắng, Hoà Minh, Liên Chiểu, Đà Nẵng 550000, Vietnam",
    "city": {
      "cityId": "58e8ac3edf758b0008ade6a7",
      "country": "Vietnam",
      "city": "Da Nang",
      "timezone": "Asia/Ho_Chi_Minh"
    },
    "latitude": 16.0565364,
    "longitude": 108.1725454
  },
  {
    "stationId": "5ee5c46115e4c15af5905ec7",
    "name": "47 Nguyễn Huệ",
    "address": "47 Nguyễn Huệ, Nam Bình, Ninh Bình, Vietnam",
    "city": {
      "cityId": "5a5b66c1aaa0ed0008a7ea0c",
      "country": "Vietnam",
      "city": "Ninh Binh",
      "timezone": "Asia/Ho_Chi_Minh"
    },
    "latitude": 20.2486166,
    "longitude": 105.9750605
  },
  {
    "stationId": "5edf3c29f314283d13549a01",
    "name": "San Francisco Pier",
    "address": "San Francisco Pier, San Francisco, Acandí, Choco, Colombia",
    "city": {
      "cityId": "5edf3bf8a48f32bf6fc4c07e",
      "country": "Colombia",
      "city": "San Francisco, Choco",
      "timezone": "America/Bogota"
    },
    "latitude": 37.7749295,
    "longitude": -122.4194155
  },
  {
    "stationId": "5ee22c8e2c4d721953c44a15",
    "name": "Capurgana Pier",
    "address": "Capurgana Pier, Capurganá, Acandí, Choco, Colombia",
    "city": {
      "cityId": "5edf3de7a3d79aa258b75a0e",
      "country": "Colombia",
      "city": "Capurgana",
      "timezone": "America/Bogota"
    },
    "latitude": 8.6341284,
    "longitude": -77.3491331
  },
  {
    "stationId": "5ee22badf87a6a5215c89cc3",
    "name": "Playa Soledad Hotel and Restaurant",
    "address": "Playa Soledad Hotel y Restaurante, HPF6+39 Vda. Pinorroa, Acandí, Choco, Colombia",
    "city": {
      "cityId": "5ed8ebf301da0bbcbc004630",
      "country": "Colombia",
      "city": "Playa Soledad",
      "timezone": "America/Bogota"
    },
    "latitude": 8.5727487,
    "longitude": -77.2890685
  },
  {
    "stationId": "5ee22a488464c26118fcbe12",
    "name": "Acandi Pier",
    "address": "Acandi Pier, Acandí, Choco, Colombia",
    "city": {
      "cityId": "5edf3d2f0a312c20f02b523e",
      "country": "Colombia",
      "city": "Acandi",
      "timezone": "America/Bogota"
    },
    "latitude": 8.510109,
    "longitude": -77.27897999999999
  },
  {
    "stationId": "5edf3c912abaa0684aa5660d",
    "name": "Trigana Pier",
    "address": "Trigana Pier, Trigana, Acandí, Choco, Colombia",
    "city": {
      "cityId": "5edf3c6ef31428c6d3549a02",
      "country": "Colombia",
      "city": "Trigana",
      "timezone": "America/Bogota"
    },
    "latitude": 8.38334,
    "longitude": -77.11663999999999
  },
  {
    "stationId": "5b2a0a388edfa3000136ee57",
    "name": "Chanthachone Transportation - Pakse",
    "address": "Chitpasong Bus Station, Pakse, Laos",
    "city": {
      "cityId": "5a5687f6b77027000788e584",
      "country": "Laos",
      "city": "Pakse",
      "timezone": "Asia/Vientiane"
    },
    "latitude": 15.1180961,
    "longitude": 105.7966502
  },
  {
    "stationId": "5d3e9708da7217da16f9bc49",
    "name": "Pattaya Pannipa bus stop",
    "address": "Pattaya Pannipa, Muang Pattaya, Amphoe Bang Lamung, Chang Wat Chon Buri 20150, Thailand",
    "city": {
      "cityId": "594ba0da42e404000782fea4",
      "country": "Thailand",
      "city": "Pattaya",
      "timezone": "Asia/Bangkok"
    },
    "latitude": 12.9321962,
    "longitude": 100.8998394
  },
  {
    "stationId": "5ed8ec1501da0b630a004631",
    "name": "Khao Yai National Park",
    "address": "Khao Yai National Park, Hin Tung, Mueang Nakhon Nayok District, Nakhon Nayok 26000, Thailand",
    "city": {
      "cityId": "5af83201fcb6f50001771bf2",
      "country": "Thailand",
      "city": "Khao Yai",
      "timezone": "Asia/Bangkok"
    },
    "latitude": 14.4392944,
    "longitude": 101.3722772
  },
  {
    "stationId": "5edf3b852abaa031f6a5660a",
    "name": "Muelle Turístico Manglares Pisisi",
    "address": "Muelle Turístico Manglares Pisisi, Turbo, Antioquia, Colombia",
    "city": {
      "cityId": "5edf3ac2a48f3262fac4c053",
      "country": "Colombia",
      "city": "Turbo",
      "timezone": "America/Bogota"
    },
    "latitude": 8.0816765,
    "longitude": -76.7227827
  },
  {
    "stationId": "5edf2646a48f32a2d6c4bdcb",
    "name": "Rodadero Aquarium",
    "address": "6Q87+V3 Playa Blanca, Santa Marta, Magdalena, Colombia",
    "city": {
      "cityId": "5cb7327f273a9a43985f96e2",
      "country": "Colombia",
      "city": "Santa Marta",
      "timezone": "America/Bogota"
    },
    "latitude": 11.2171875,
    "longitude": -74.2373125
  },
  {
    "stationId": "5edf1c3c1cd2c708f52209c7",
    "name": "Playa Blanca, Santa Marta",
    "address": "Playa Blanca, 6Q87+V3 Playa Blanca, Santa Marta, Magdalena, Colombia",
    "city": {
      "cityId": "5cb7327f273a9a43985f96e2",
      "country": "Colombia",
      "city": "Santa Marta",
      "timezone": "America/Bogota"
    },
    "latitude": 11.2171875,
    "longitude": -74.2373125
  },
  {
    "stationId": "5ede53c5d88927161c5f7921",
    "name": "Balneario de Villa Concha",
    "address": "Balneario de Villa Concha, 7RWX+GG Balneario de Villa Concha, Santa Marta, Magdalena, Colombia",
    "city": {
      "cityId": "5cb7327f273a9a43985f96e2",
      "country": "Colombia",
      "city": "Santa Marta",
      "timezone": "America/Bogota"
    },
    "latitude": 11.2963125,
    "longitude": -74.15118749999999
  },
  {
    "stationId": "5ede503faf05a18b40e6abe4",
    "name": "El Cabo Parque Nacional Tayrona",
    "address": "82HM+RW Cabo San Juan del Guia, Santa Marta, Magdalena, Colombia",
    "city": {
      "cityId": "5cb7327f273a9a43985f96e2",
      "country": "Colombia",
      "city": "Santa Marta",
      "timezone": "America/Bogota"
    },
    "latitude": 11.3295625,
    "longitude": -73.9651875
  },
  {
    "stationId": "5ede4784af05a1333fe6aa79",
    "name": "Playa Inca Inca",
    "address": "Playa Inca Inca, Santa Marta, Magdalena, Colombia",
    "city": {
      "cityId": "5cb7327f273a9a43985f96e2",
      "country": "Colombia",
      "city": "Santa Marta",
      "timezone": "America/Bogota"
    },
    "latitude": 11.2157698,
    "longitude": -74.2334554
  },
  {
    "stationId": "5ede46e91cd2c72cfe21eb36",
    "name": "Taximarino office Santa Marta",
    "address": "Taximarino Oficial viajes al Acuario Playa Blanca y Bahía Concha, Ed. Fuentemar, Cra. 1 ##7-69, Gaira, Santa Marta, Magdalena, Colombia",
    "city": {
      "cityId": "5cb7327f273a9a43985f96e2",
      "country": "Colombia",
      "city": "Santa Marta",
      "timezone": "America/Bogota"
    },
    "latitude": 11.2047771,
    "longitude": -74.227144
  },
  {
    "stationId": "5ede0acf2c3e6b4182ccc599",
    "name": "Bus Terminal Pasir Gudang",
    "address": "Bus Terminal Pasir Gudang, Jalan Mawar Biru, Kawasan Perindustrian Pasir Gudang, 81700 Pasir Gudang, Johor, Malaysia",
    "city": {
      "cityId": "5ede0a9c770a26dd838a9887",
      "country": "Malaysia",
      "city": "Pasir Gudang, Johor",
      "timezone": "Asia/Kuala_Lumpur"
    },
    "latitude": 1.4658503,
    "longitude": 103.9012995
  },
  {
    "stationId": "5ede08614abb873b00345246",
    "name": "Bus Terminal Bentayan",
    "address": "Bus Terminal Bentayan, 104, Jalan Maharani, 84000 Muar, Johor, Malaysia",
    "city": {
      "cityId": "5ede07dec234a360fba9b882",
      "country": "Malaysia",
      "city": "Muar, Johor",
      "timezone": "Asia/Kuala_Lumpur"
    },
    "latitude": 2.0505163,
    "longitude": 102.5700096
  },
  {
    "stationId": "5ede013a2c3e6b05b4ccc375",
    "name": "Express Bus Terminal Batu Pahat",
    "address": "Express Bus Terminal Batu Pahat, Jalan Rugayah, Kampung Pegawai, 83000 Batu Pahat, Johor, Malaysia",
    "city": {
      "cityId": "5eddffc74abb87762e345055",
      "country": "Malaysia",
      "city": "Batu Pahat, Johor",
      "timezone": "Asia/Kuala_Lumpur"
    },
    "latitude": 1.853377,
    "longitude": 102.926596
  },
  {
    "stationId": "5eddfd72960eb218b72ab999",
    "name": "Kajang Bus Terminal",
    "address": "Kajang Bus Terminal, Pusat Hentian Kajang, 43650 Kajang, Selangor, Malaysia",
    "city": {
      "cityId": "5eddfcb6770a26f8a68a9648",
      "country": "Malaysia",
      "city": "Kajang",
      "timezone": "Asia/Kuala_Lumpur"
    },
    "latitude": 2.957099,
    "longitude": 101.791802
  },
  {
    "stationId": "5edddd394abb872152344920",
    "name": "Natural Bay Pier",
    "address": "Natural Bay Pier, Khlong Yai, Laem Ngop District, Trat, Thailand",
    "city": {
      "cityId": "5ae9e8394120a90001e5d7e1",
      "country": "Thailand",
      "city": "Trat",
      "timezone": "Asia/Bangkok"
    },
    "latitude": 12.1872508,
    "longitude": 102.3012964
  },
  {
    "stationId": "5d64eac38e62f18fe7b01438",
    "name": "Chonburi - Any Hotel",
    "address": "Chon Buri, Thailand",
    "city": {
      "cityId": "5d64e5038e62f12cb2b00a81",
      "country": "Thailand",
      "city": "Chonburi",
      "timezone": "Asia/Bangkok"
    },
    "latitude": 13.3611431,
    "longitude": 100.9846717
  },
  {
    "stationId": "5edd00072c3e6bb5efcc9ac3",
    "name": "Buri Ram - Any hotel",
    "address": "Buri Ram, Thailand",
    "city": {
      "cityId": "5edcffef2fde163bb9c8690c",
      "country": "Thailand",
      "city": "Buri Ram",
      "timezone": "Asia/Bangkok"
    },
    "latitude": 14.9951003,
    "longitude": 103.1115915
  },
  {
    "stationId": "5c20a1a14989d05dbce97089",
    "name": "Virak Buntham Sihanoukville bus stop",
    "address": "Virak Buntham, Ekareach Street 100, next to Commercial Bank, II District Khan Mittapheap, Sihanoukville, Cambodia",
    "city": {
      "cityId": "5a64983516d0090007646e30",
      "country": "Cambodia",
      "city": "Sihanoukville",
      "timezone": "Asia/Phnom_Penh"
    },
    "latitude": 10.6355895,
    "longitude": 103.5337551
  },
  {
    "stationId": "5bd6ceaf8d67ce6e5d6a28e5",
    "name": "Central Bus Station Nha Trang",
    "address": "Ben Xe Phia Nam Nha Trang, Central Bus Station Nha Trang, Vĩnh Trung, Nha Trang, Khanh Hoa Province, Vietnam",
    "city": {
      "cityId": "5914492b40355d00058931e4",
      "country": "Vietnam",
      "city": "Nha Trang",
      "timezone": "Asia/Ho_Chi_Minh"
    },
    "latitude": 12.2584309,
    "longitude": 109.1348812
  },
  {
    "stationId": "5ed89a241f46d1ddbe7805bf",
    "name": "Road 2422 (Pakchong Carrent)",
    "address": "PC49+W3 Pak Chong, Pak Chong District, Nakhon Ratchasima, Thailand",
    "city": {
      "cityId": "5ed89829223ad8b42023874b",
      "country": "Thailand",
      "city": "Pak Chong",
      "timezone": "Asia/Bangkok"
    },
    "latitude": 14.7073125,
    "longitude": 101.4176875
  },
  {
    "stationId": "5ed75542ec00f612942253c1",
    "name": "Surin, Kalim, Patong and Rawai Beach - Any hotel",
    "address": "Surin Beach, Phuket, Thailand",
    "city": {
      "cityId": "5a3928dc1fa0e60005be679d",
      "country": "Thailand",
      "city": "Phuket",
      "timezone": "Asia/Bangkok"
    },
    "latitude": 7.975473099999999,
    "longitude": 98.2784667
  },
  {
    "stationId": "5b6abccf768c2e2c20fe9cb1",
    "name": "Chaweng Beach & Bangrak Beach - Any hotel",
    "address": "Chaweng Beach, Koh Samui, Surat Thani, Thailand",
    "city": {
      "cityId": "597dcda50c735f0005fc5ca4",
      "country": "Thailand",
      "city": "Koh Samui",
      "timezone": "Asia/Bangkok"
    },
    "latitude": 9.5323852,
    "longitude": 100.0675391
  },
  {
    "stationId": "5ed36f4853e05d1ef158e31a",
    "name": "T1 Vo Van Kiet, Phan Thiet",
    "address": "Trung Nga bus office, T1 Võ Văn Kiệt, Phú Thuỷ, Thành phố Phan Thiết, Bình Thuận, Vietnam",
    "city": {
      "cityId": "5ae72cf34120a90001e5cee8",
      "country": "Vietnam",
      "city": "Mui Ne",
      "timezone": "Asia/Ho_Chi_Minh"
    },
    "latitude": 10.9404351,
    "longitude": 108.1099545
  },
  {
    "stationId": "5ed3a0da2bccb869eaddcb34",
    "name": "Citystate Tower Hotel",
    "address": "Citystate Tower Hotel, 1315 A A. Mabini St, Ermita, Manila, 1000 Metro Manila, Philippines",
    "city": {
      "cityId": "58a9d292a0ab550005243d46",
      "country": "Philippines",
      "city": "Manila",
      "timezone": "Asia/Manila"
    },
    "latitude": 14.5769854,
    "longitude": 120.9813385
  },
  {
    "stationId": "59c90e0a2649150005b914df",
    "name": "Na Dan Pier",
    "address": "Koh Samet Na Dan Pier, Mueang Rayong District, Rayong 21160, Thailand",
    "city": {
      "cityId": "59c8bcda2649150005b904c4",
      "country": "Thailand",
      "city": "Koh Samet",
      "timezone": "Asia/Bangkok"
    },
    "latitude": 12.5742694,
    "longitude": 101.4633409
  },
  {
    "stationId": "5ed51daaaf6b49fed24a1c20",
    "name": "Acapulco Terminal Centro",
    "address": "Terminal Centro, Av Cuauhtémoc 84, Equipamiento, Acapulco de Juárez, Gro., Mexico",
    "city": {
      "cityId": "5d88705d3c5ecc14b2ed1044",
      "country": "Mexico",
      "city": "Acapulco",
      "timezone": "America/Bahia_Banderas"
    },
    "latitude": 16.8565047,
    "longitude": -99.90142619999999
  },
  {
    "stationId": "5ed51bf4af6b4913634a1b91",
    "name": "Merida - Any hotel",
    "address": "Merida, Yucatan, Mexico",
    "city": {
      "cityId": "5ed51b805c89c47960868e35",
      "country": "Mexico",
      "city": "Merida",
      "timezone": "America/Cancun"
    },
    "latitude": 20.9673702,
    "longitude": -89.5925857
  },
  {
    "stationId": "5ed51bc956762afaa7b9ff73",
    "name": "Merida International Airport (Aeropuerto Internacional de Mérida Manuel Crescencio Rejón) (MID)",
    "address": "Mérida International Airport (Aeropuerto Internacional de Mérida Manuel Crescencio Rejón), 97255 Mérida, Yucatan, Mexico",
    "city": {
      "cityId": "5ed51b805c89c47960868e35",
      "country": "Mexico",
      "city": "Merida",
      "timezone": "America/Cancun"
    },
    "latitude": 20.9338424,
    "longitude": -89.6604428
  },
  {
    "stationId": "5ed51a045c89c4e7bb868e34",
    "name": "Acapulco - Any hotel in Hotel Zone 1",
    "address": "Acapulco, Guerrero, Mexico",
    "city": {
      "cityId": "5d88705d3c5ecc14b2ed1044",
      "country": "Mexico",
      "city": "Acapulco",
      "timezone": "America/Bahia_Banderas"
    },
    "latitude": 16.8531086,
    "longitude": -99.8236533
  },
  {
    "stationId": "5d8873b13c5eccd032ed1661",
    "name": "Playa Diamante (Acapulco, Diamont Area 1) - Any Hotel",
    "address": "Playa Diamante, 39897 Acapulco, Guerrero, Mexico",
    "city": {
      "cityId": "5d88705d3c5ecc14b2ed1044",
      "country": "Mexico",
      "city": "Acapulco",
      "timezone": "America/Bahia_Banderas"
    },
    "latitude": 16.7760879,
    "longitude": -99.7873891
  },
  {
    "stationId": "5ed511f9af6b4979724a1a26",
    "name": "Cozumel International Airport (CZM)",
    "address": "Cozumel International Airport, Boulevard Aeropuerto Cozumel s/n, 77600 San Miguel de Cozumel, Q.R., Mexico",
    "city": {
      "cityId": "5b8f8aaa78bfa210ed335cce",
      "country": "Mexico",
      "city": "Cozumel",
      "timezone": "America/Cancun"
    },
    "latitude": 20.5112513,
    "longitude": -86.9301538
  },
  {
    "stationId": "5ed5108f56762a397fb9fdeb",
    "name": "Cozumel - Any hotel in Hotel Zone 3",
    "address": "Cozumel, Quintana Roo, Mexico",
    "city": {
      "cityId": "5b8f8aaa78bfa210ed335cce",
      "country": "Mexico",
      "city": "Cozumel",
      "timezone": "America/Cancun"
    },
    "latitude": 20.4229839,
    "longitude": -86.9223432
  },
  {
    "stationId": "5ed50b4256762a2577b9fdb7",
    "name": "Muelle Ferry Cozumel",
    "address": "Muelle Ferry Cozumel, Av. Rafael E. Melgar 101, Centro, 77600 San Miguel de Cozumel, Q.R., Mexico",
    "city": {
      "cityId": "5b8f8aaa78bfa210ed335cce",
      "country": "Mexico",
      "city": "Cozumel",
      "timezone": "America/Cancun"
    },
    "latitude": 20.512147,
    "longitude": -86.9510591
  },
  {
    "stationId": "5ea69b163292e6b62d1b4235",
    "name": "Puerto Aventuras - Any hotel",
    "address": "Puerto Aventuras, Quintana Roo, Mexico",
    "city": {
      "cityId": "5ed50883d357e0d54839cec6",
      "country": "Mexico",
      "city": "Puerto Aventuras",
      "timezone": "America/Cancun"
    },
    "latitude": 20.5072354,
    "longitude": -87.2323225
  },
  {
    "stationId": "5ed50070a93dce4dc9ffc109",
    "name": "Mexico City - Any hotel in Hotel Zone 3",
    "address": "Mexico City, Mexico",
    "city": {
      "cityId": "5d7e2a0a14afa3570c34fd3b",
      "country": "Mexico",
      "city": "Mexico City",
      "timezone": "America/Mexico_City"
    },
    "latitude": 19.4326077,
    "longitude": -99.133208
  },
  {
    "stationId": "5ed4f6c5a93dce2137ffc03c",
    "name": "Mexico City - Any hotel in Hotel Zone 1 & 2",
    "address": "Mexico City, Mexico",
    "city": {
      "cityId": "5d7e2a0a14afa3570c34fd3b",
      "country": "Mexico",
      "city": "Mexico City",
      "timezone": "America/Mexico_City"
    },
    "latitude": 19.4326077,
    "longitude": -99.133208
  },
  {
    "stationId": "5ed4a1c75e259b32d3a5136b",
    "name": "Krabi Province - Any hotel",
    "address": "Krabi Province, Thailand",
    "city": {
      "cityId": "5a40bdb28a1c0c0009f30856",
      "country": "Thailand",
      "city": "Krabi",
      "timezone": "Asia/Bangkok"
    },
    "latitude": 8.0862997,
    "longitude": 98.9062835
  },
  {
    "stationId": "5b3ad81d5571a80001c06b7e",
    "name": "Muelle Puerto Galera Pier",
    "address": "Muelle Puerto Galera Pier, Puerto Galera, Oriental Mindoro",
    "city": {
      "cityId": "58ac2dc222e8c30005b9c0f2",
      "country": "Philippines",
      "city": "Puerto Galera",
      "timezone": "Asia/Manila"
    },
    "latitude": 13.502594,
    "longitude": 120.9530608
  },
  {
    "stationId": "5ed38683d5f3f63219075126",
    "name": "Ben Thuyen Ho Ba Be",
    "address": "Bến thuyền Hồ Ba Bể, Ba Be National Park, ĐT254, Nam Mẫu, Ba Bể, Bắc Kạn, Vietnam",
    "city": {
      "cityId": "5a68677516d00900076483a2",
      "country": "Vietnam",
      "city": "Ba Be National Park",
      "timezone": "Asia/Ho_Chi_Minh"
    },
    "latitude": 22.4089383,
    "longitude": 105.6235417
  },
  {
    "stationId": "5ed385d153e05d1b4458e56b",
    "name": "50 Vo Chi Cong",
    "address": "Xe Limousin Hà Lan, 50 Võ Chí Công, Nghĩa Đô, Cầu Giấy, Hà Nội, Vietnam",
    "city": {
      "cityId": "58ade15cd8638d00070c04b2",
      "country": "Vietnam",
      "city": "Hanoi",
      "timezone": "Asia/Ho_Chi_Minh"
    },
    "latitude": 21.049561,
    "longitude": 105.8049404
  },
  {
    "stationId": "5ed36de0d5f3f611e9074dcc",
    "name": "85a Nguyen Cu Trinh",
    "address": "Dịch vụ xe khách Trung Nga, 85A Nguyễn Cư Trinh, Phường Nguyễn Cư Trinh, Quận 1, Hồ Chí Minh, Vietnam",
    "city": {
      "cityId": "5914568b40355d00058933d7",
      "country": "Vietnam",
      "city": "Ho Chi Minh (Saigon)",
      "timezone": "Asia/Ho_Chi_Minh"
    },
    "latitude": 10.763845,
    "longitude": 106.6900047
  },
  {
    "stationId": "5ed35c3b4715bab32f39fef6",
    "name": "312 Nguyen An Ninh",
    "address": "312 Nguyễn An Ninh, Phường 9, Thành phố Vũng Tầu, Bà Rịa - Vũng Tàu 790000, Vietnam",
    "city": {
      "cityId": "5afd470ca6a9a00001c0adc0",
      "country": "Vietnam",
      "city": "Vung Tau",
      "timezone": "Asia/Ho_Chi_Minh"
    },
    "latitude": 10.3660427,
    "longitude": 107.0883765
  },
  {
    "stationId": "5ed35bcd4715babd7339fed0",
    "name": "175 Nguyen Thai Binh",
    "address": "175 Nguyễn Thái Bình, Phường Nguyễn Thái Bình, Quận 1, Hồ Chí Minh, Vietnam",
    "city": {
      "cityId": "5914568b40355d00058933d7",
      "country": "Vietnam",
      "city": "Ho Chi Minh (Saigon)",
      "timezone": "Asia/Ho_Chi_Minh"
    },
    "latitude": 10.76781,
    "longitude": 106.698401
  },
  {
    "stationId": "5ed34ef64715bade2039fc94",
    "name": "Bon Hai · Cao Bang",
    "address": "Nhà Xe 42. Cao Bằng Hà Nội, Khối 3, Cao Bằng, Cao Bang, Vietnam",
    "city": {
      "cityId": "5ed34b024715ba7fe739fc63",
      "country": "Vietnam",
      "city": "Cao Bang",
      "timezone": "Asia/Ho_Chi_Minh"
    },
    "latitude": 22.6665642,
    "longitude": 106.2634246
  },
  {
    "stationId": "5ecd0dad802add3890b8aff5",
    "name": "Lopburi - Any hotel",
    "address": "Lopburi, Thailand",
    "city": {
      "cityId": "5cf7b1eeaed8c5e4a4351a78",
      "country": "Thailand",
      "city": "Lopburi",
      "timezone": "Asia/Bangkok"
    },
    "latitude": 14.7995081,
    "longitude": 100.6533706
  },
  {
    "stationId": "5962148a7ecdfc00079ccb4c",
    "name": "Chatuchak Bus Terminal, Bangkok",
    "address": "Bangkok Bus Terminal (Chatuchak), 2 Kamphaeng Phet Road, Bangkok, Thailand",
    "city": {
      "cityId": "59411da43332c40005def593",
      "country": "Thailand",
      "city": "Bangkok",
      "timezone": "Asia/Bangkok"
    },
    "latitude": 13.813244,
    "longitude": 100.5488568
  },
  {
    "stationId": "5b3b4d847314170001ce167f",
    "name": "InterBusLine office Hanoi",
    "address": "InterBusLines Office (Hanoi), 18C Hàng Vôi, Street, Hoàn Kiếm, Hà Nội 100000, Vietnam",
    "city": {
      "cityId": "58ade15cd8638d00070c04b2",
      "country": "Vietnam",
      "city": "Hanoi",
      "timezone": "Asia/Ho_Chi_Minh"
    },
    "latitude": 21.030782,
    "longitude": 105.8560791
  },
  {
    "stationId": "5c127f8e569909584f56de81",
    "name": "Kanchanaburi Town - Any hotel",
    "address": "Kanchanaburi Town, Thailand",
    "city": {
      "cityId": "5b04178a9084a90001c673ce",
      "country": "Thailand",
      "city": "Kanchanaburi",
      "timezone": "Asia/Bangkok"
    },
    "latitude": 14.1011393,
    "longitude": 99.4179431
  },
  {
    "stationId": "5ba0c4d22d705f6ede0f9f74",
    "name": "Hua Hin - Any hotel",
    "address": "Hua Hin, Thailand",
    "city": {
      "cityId": "59d7d7612649150005bbe8f3",
      "country": "Thailand",
      "city": "Hua Hin",
      "timezone": "Asia/Bangkok"
    },
    "latitude": 12.568452,
    "longitude": 99.9577223
  },
  {
    "stationId": "5ebee69b4eaef1c9b2655ca4",
    "name": "Terminal de Omnibus Tandil",
    "address": "Terminal de Omnibus Tandil, B7001, Tandil, Buenos Aires, Argentina",
    "city": {
      "cityId": "5ebee66fc8677c47137f69df",
      "country": "Argentina",
      "city": "Tandil",
      "timezone": "America/Argentina/Buenos_Aires"
    },
    "latitude": -37.3208981,
    "longitude": -59.11734749999999
  },
  {
    "stationId": "5ebedee7454a137ddbc72446",
    "name": "Puerto Madryn - Terminal de Omnibus",
    "address": "Puerto Madryn - Terminal de Omnibus, Dr. Avila, U9120 Puerto Madryn, Chubut, Argentina",
    "city": {
      "cityId": "5ebedeb7454a131c12c72445",
      "country": "Argentina",
      "city": "Puerto Madryn",
      "timezone": "America/Argentina/Buenos_Aires"
    },
    "latitude": -42.765301,
    "longitude": -65.0409852
  },
  {
    "stationId": "5ebd67e5b0292cba46a15e28",
    "name": "Terminal De Omnibus de Salta",
    "address": "Terminal De Omnibus de Salta, 4400, Av. Hipólito Yrigoyen 399, A4400 Salta, Argentina",
    "city": {
      "cityId": "5ebd671ab40b8be0f6d0f4f9",
      "country": "Argentina",
      "city": "Salta",
      "timezone": "America/Argentina/Salta"
    },
    "latitude": -24.7957392,
    "longitude": -65.3979159
  },
  {
    "stationId": "5ebc07f5cbf4345a83e4d215",
    "name": "Estación de Autobuses Rosario",
    "address": "Estación de Autobuses Rosario, Cafferata 702, Rosario, Santa Fe, Argentina",
    "city": {
      "cityId": "5ebc079e3669c548fa1a219c",
      "country": "Argentina",
      "city": "Rosario",
      "timezone": "America/Argentina/Buenos_Aires"
    },
    "latitude": -32.9391905,
    "longitude": -60.6726608
  },
  {
    "stationId": "5ba0c5402d705f60df0f9f76",
    "name": "Pattaya - Any hotel",
    "address": "Pattaya, Thailand",
    "city": {
      "cityId": "594ba0da42e404000782fea4",
      "country": "Thailand",
      "city": "Pattaya",
      "timezone": "Asia/Bangkok"
    },
    "latitude": 12.9235557,
    "longitude": 100.8824551
  },
  {
    "stationId": "5eca6edf3855f0ecb98e54da",
    "name": "Ranong Town - Any hotel",
    "address": "Ranong, Thailand",
    "city": {
      "cityId": "5af19ee9990d780001cb0daf",
      "country": "Thailand",
      "city": "Ranong",
      "timezone": "Asia/Bangkok"
    },
    "latitude": 9.9528702,
    "longitude": 98.60846409999999
  },
  {
    "stationId": "5eca6e3b71b07964d3689f7b",
    "name": "Khao Lak Beach - Any hotel",
    "address": "Khao Lak Beach, Phang-nga, Thailand",
    "city": {
      "cityId": "5b0bde31b66acc0001625b8e",
      "country": "Thailand",
      "city": "Khao Lak",
      "timezone": "Asia/Bangkok"
    },
    "latitude": 8.667404200000002,
    "longitude": 98.24317099999999
  },
  {
    "stationId": "5eca6bfb71b07990a2689f54",
    "name": "Suratthani Town - Any hotel",
    "address": "Suratthani Town, Surat Thani, Thailand",
    "city": {
      "cityId": "5a858dce399c270008ea1c2a",
      "country": "Thailand",
      "city": "Suratthani",
      "timezone": "Asia/Bangkok"
    },
    "latitude": 9.134194899999999,
    "longitude": 99.3334198
  },
  {
    "stationId": "5eca650095246d9bda21887f",
    "name": "Bangkok - Any hotel in CBD",
    "address": "Bangkok, Thailand",
    "city": {
      "cityId": "59411da43332c40005def593",
      "country": "Thailand",
      "city": "Bangkok",
      "timezone": "Asia/Bangkok"
    },
    "latitude": 13.7563309,
    "longitude": 100.5017651
  },
  {
    "stationId": "5c1a117650df881590585646",
    "name": "Mochit New Van Terminal",
    "address": "Mochit New Van Terminal Bangkok, RH72+63 Bangkok, Thailand",
    "city": {
      "cityId": "59411da43332c40005def593",
      "country": "Thailand",
      "city": "Bangkok",
      "timezone": "Asia/Bangkok"
    },
    "latitude": 13.813065,
    "longitude": 100.550199
  },
  {
    "stationId": "5eca5b5037972f954ab81686",
    "name": "Pran Buri Van Station",
    "address": "Pran Buri Van Station, Khao Noi, Pran Buri District, Prachuap Khiri Khan 77120, Thailand",
    "city": {
      "cityId": "5b0410924787410001c588ef",
      "country": "Thailand",
      "city": "Pran Buri",
      "timezone": "Asia/Bangkok"
    },
    "latitude": 12.393731,
    "longitude": 99.918787
  },
  {
    "stationId": "5eca3ae85f96a362503ea3a5",
    "name": "Batangas Pier",
    "address": "Batangas Pier, Guisguis Pier Road, Sariaya, Batangas, Philippines",
    "city": {
      "cityId": "5ab7933e31f8330001c53121",
      "country": "Philippines",
      "city": "Batangas",
      "timezone": "Asia/Manila"
    },
    "latitude": 13.7604311,
    "longitude": 121.0441929
  },
  {
    "stationId": "5d512f44965de018315d068b",
    "name": "JAM Bus Terminal - Lucena",
    "address": "JAM Bus Terminal, AH26, Lucena, 4301 Quezon, Philippines",
    "city": {
      "cityId": "5d512f20965de0e0285d063d",
      "country": "Philippines",
      "city": "Lucena",
      "timezone": "Asia/Manila"
    },
    "latitude": 13.9600496,
    "longitude": 121.6527376
  },
  {
    "stationId": "5ec6843ae6297709cce2e9f1",
    "name": "JAC Liner Terminal - Binan",
    "address": "JAC Liner Terminal - Binan, Brgy. Sto Domingo, Binan, 4024, Laguna, Philippines",
    "city": {
      "cityId": "5ec68403f09461834ec34319",
      "country": "Philippines",
      "city": "Binan, Laguna",
      "timezone": "Asia/Manila"
    },
    "latitude": 14.3393282,
    "longitude": 121.0818028
  },
  {
    "stationId": "5d512e52965de0845c5d00fc",
    "name": "Batangas City Grand Terminal",
    "address": "Batangas City Grand Terminal, Grand Terminal, Diversion Road, Batangas, Philippines",
    "city": {
      "cityId": "5ab7933e31f8330001c53121",
      "country": "Philippines",
      "city": "Batangas",
      "timezone": "Asia/Manila"
    },
    "latitude": 13.7901679,
    "longitude": 121.0615378
  },
  {
    "stationId": "5ec678b8d160715b95607021",
    "name": "City Lipa Grand Transport Terminal",
    "address": "City Lipa Grand Transport Terminal, Lipa, Batangas, Philippines",
    "city": {
      "cityId": "5ec678a0d1607177c9607020",
      "country": "Philippines",
      "city": "Lipa, Batangas",
      "timezone": "Asia/Manila"
    },
    "latitude": 13.9538956,
    "longitude": 121.162298
  },
  {
    "stationId": "5ec67766d16071cda260701f",
    "name": "JAM Liner - Lemery Terminal",
    "address": "JAM Liner - Lemery Terminal, Illustre Ave, Lemery, Batangas, Philippines",
    "city": {
      "cityId": "5ec677481cc2a7d4983d2d7f",
      "country": "Philippines",
      "city": "Lemery, Batangas",
      "timezone": "Asia/Manila"
    },
    "latitude": 13.8924109,
    "longitude": 120.9083263
  },
  {
    "stationId": "5ec675651cc2a708ae3d2d72",
    "name": "Jam Liner Inc. Cabuyao Terminal",
    "address": "Jam Liner Inc. Cabuyao Terminal, Manila S Rd, Cabuyao, Laguna, Philippines",
    "city": {
      "cityId": "5ec6754f1cc2a7a0c13d2d71",
      "country": "Philippines",
      "city": "Cabuyao, Laguna",
      "timezone": "Asia/Manila"
    },
    "latitude": 14.2463955,
    "longitude": 121.1291256
  },
  {
    "stationId": "5d6e1771942ae3bcbfd39c89",
    "name": "Buendia Bus Terminal",
    "address": "Buendia Bus Terminal, 2124 Taft Ave, Pasay, Metro Manila, Philippines",
    "city": {
      "cityId": "58a9d292a0ab550005243d46",
      "country": "Philippines",
      "city": "Manila",
      "timezone": "Asia/Manila"
    },
    "latitude": 14.553625,
    "longitude": 120.997625
  },
  {
    "stationId": "5ec66f63d1607168e2606fe8",
    "name": "Jam Liner Bus Stop",
    "address": "Jam Liner Bus Stop, Amethyst Rd, Balibago, Santa Rosa, Laguna, Philippines",
    "city": {
      "cityId": "5ec66f48f094613c95c34105",
      "country": "Philippines",
      "city": "Balibago, Laguna",
      "timezone": "Asia/Manila"
    },
    "latitude": 14.2935763,
    "longitude": 121.1048564
  },
  {
    "stationId": "5ec63d6d1bbfbd348d5895b0",
    "name": "Rosario - Any hotel",
    "address": "Rosario, Santa Fe Province, Argentina",
    "city": {
      "cityId": "5ebc079e3669c548fa1a219c",
      "country": "Argentina",
      "city": "Rosario",
      "timezone": "America/Argentina/Buenos_Aires"
    },
    "latitude": -32.9587022,
    "longitude": -60.69304159999999
  },
  {
    "stationId": "5ec63d15f88eaef4a36a4f00",
    "name": "Pilar - Any hotel",
    "address": "Pilar, Buenos Aires Province, Argentina",
    "city": {
      "cityId": "5ec63d00df1f3c8d5346df63",
      "country": "Argentina",
      "city": "Pilar",
      "timezone": "America/Argentina/Buenos_Aires"
    },
    "latitude": -34.4778621,
    "longitude": -58.9091671
  },
  {
    "stationId": "5e83494de0c91d7945b3a447",
    "name": "Buenos Aires - Any hotel",
    "address": "Buenos Aires, Argentina",
    "city": {
      "cityId": "5e37efeae1265e20eaced6c4",
      "country": "Argentina",
      "city": "Buenos Aires",
      "timezone": "America/Argentina/Buenos_Aires"
    },
    "latitude": -34.6036844,
    "longitude": -58.3815591
  },
  {
    "stationId": "5a64b42caaa0ed0008a81802",
    "name": "Eastern Bus Terminal Bangkok Ekkamai",
    "address": "Eastern Bus Terminal Bangkok Ekkamai, 928 Sukhumvit Rd, Khwaeng Phra Khanong, Khet Khlong Toei, Krung Thep Maha Nakhon 10110, Thailand",
    "city": {
      "cityId": "59411da43332c40005def593",
      "country": "Thailand",
      "city": "Bangkok",
      "timezone": "Asia/Bangkok"
    },
    "latitude": 13.7195704,
    "longitude": 100.5839991
  },
  {
    "stationId": "5ec637f6ac79f91928643b71",
    "name": "Petchkasem Rd",
    "address": "HX26+HR Hua Hin, Hua Hin District, Prachuap Khiri Khan, Thailand",
    "city": {
      "cityId": "59d7d7612649150005bbe8f3",
      "country": "Thailand",
      "city": "Hua Hin",
      "timezone": "Asia/Bangkok"
    },
    "latitude": 12.5514375,
    "longitude": 99.9620625
  },
  {
    "stationId": "5ec62612a604e0d3ff6e741a",
    "name": "Quirino Boulevard",
    "address": "Quirino Boulevard, zone 5, near ilocos medical center, Vigan City, Ilocos Sur, Philippines",
    "city": {
      "cityId": "5d0f2b97cc1e76298be36f8d",
      "country": "Philippines",
      "city": "Vigan City",
      "timezone": "Asia/Manila"
    },
    "latitude": 17.5567138,
    "longitude": 120.3822828
  },
  {
    "stationId": "5b474b4e7314170001ce4ba1",
    "name": "Cebu Pier 3",
    "address": "Pier 3 Terminal, Quezon Blvd, Cebu City, 6000 Cebu, Philippines",
    "city": {
      "cityId": "58ac2d8922e8c30005b9c0f1",
      "country": "Philippines",
      "city": "Cebu",
      "timezone": "Asia/Manila"
    },
    "latitude": 10.2971645,
    "longitude": 123.9111257
  },
  {
    "stationId": "5ec512c7be71d6bfb3263109",
    "name": "Cartagena - Any hotel in the Urban Zone",
    "address": "Cartagena, Provincia de Cartagena, Bolívar, Colombia",
    "city": {
      "cityId": "5cab051bb62a4461790333a6",
      "country": "Colombia",
      "city": "Cartagena",
      "timezone": "America/Bogota"
    },
    "latitude": 10.3932277,
    "longitude": -75.4832311
  },
  {
    "stationId": "5ec518cbcc33b4515a826fa6",
    "name": "Baru - Any hotel",
    "address": "Barú, Cartagena Province, Bolivar, Colombia",
    "city": {
      "cityId": "5ec518afcc33b489f7826fa5",
      "country": "Colombia",
      "city": "Baru",
      "timezone": "America/Bogota"
    },
    "latitude": 10.142841,
    "longitude": -75.68482399999999
  },
  {
    "stationId": "5ec5120b6a695af6ab6a4dc4",
    "name": "Cartagena - Any hotel in the Industrial Zone",
    "address": "Zona industrial Cartagena, Provincia de Cartagena, Bolívar, Colombia",
    "city": {
      "cityId": "5cab051bb62a4461790333a6",
      "country": "Colombia",
      "city": "Cartagena",
      "timezone": "America/Bogota"
    },
    "latitude": 10.3932277,
    "longitude": -75.4832311
  },
  {
    "stationId": "5ec4e3ab052c2c66fab08802",
    "name": "Alfonso Bonilla Aragón International Airport (CLO)",
    "address": "Alfonso Bonilla Aragón International Airport, Vía al Aeropuerto Norte, Palmira, Valle del Cauca, Colombia",
    "city": {
      "cityId": "5e73966b47c5904e172342f4",
      "country": "Colombia",
      "city": "Cali",
      "timezone": "America/Bogota"
    },
    "latitude": 3.5368331,
    "longitude": -76.3876121
  },
  {
    "stationId": "5ec4e4cb90d28e6fd11b1a0a",
    "name": "Cali -  Any hotel in Cali South Hotel Zone",
    "address": "Cali South Hotel Zone, Cali, Valle del Cauca, Colombia",
    "city": {
      "cityId": "5e73966b47c5904e172342f4",
      "country": "Colombia",
      "city": "Cali",
      "timezone": "America/Bogota"
    },
    "latitude": 3.458237,
    "longitude": -76.5288455
  },
  {
    "stationId": "5ec4e425052c2c984cb0887f",
    "name": "Cali - Any hotel in Cali North & West Hotel Zone",
    "address": "Cali North & West Hotel Zone, Cali, Valle del Cauca, Colombia",
    "city": {
      "cityId": "5e73966b47c5904e172342f4",
      "country": "Colombia",
      "city": "Cali",
      "timezone": "America/Bogota"
    },
    "latitude": 3.4500876,
    "longitude": -76.539202
  },
  {
    "stationId": "5a649e1516d0090007646e37",
    "name": "Thero Express Pick Up Sihanoukville",
    "address": "7 Makara St, Preah Sihanouk, Cambodia",
    "city": {
      "cityId": "5a64983516d0090007646e30",
      "country": "Cambodia",
      "city": "Sihanoukville",
      "timezone": "Asia/Phnom_Penh"
    },
    "latitude": 10.6203312,
    "longitude": 103.5249665
  },
  {
    "stationId": "5ec3dfccc602119845fc5a74",
    "name": "Nasipit Seaport Terminal",
    "address": "Nasipit Seaport Terminal, Nasipit, Agusan Del Norte, Philippines",
    "city": {
      "cityId": "5ec3df21c60211206efc5a73",
      "country": "Philippines",
      "city": "Butuan City, Agusan Del Norte",
      "timezone": "Asia/Manila"
    },
    "latitude": 8.9783698,
    "longitude": 125.3366289
  },
  {
    "stationId": "5ec3d8e6ad7b0e0ac1d9937b",
    "name": "Zamboanga Port",
    "address": "Zamboanga Port, Zamboanga, Zamboanga del Norte, Philippines",
    "city": {
      "cityId": "5ec3d8c84b614303836bd672",
      "country": "Philippines",
      "city": "Zamboanga",
      "timezone": "Asia/Manila"
    },
    "latitude": 6.902646,
    "longitude": 122.074006
  },
  {
    "stationId": "5ec3b6663704be29eb6365c0",
    "name": "CheoLan Pier (Ratchaprapha Pier)",
    "address": "CheoLan Pier (Ratchaprapha Pier), Unnamed Rd, Khao Phang, Ban Ta Khun District, Surat Thani 84230, Thailand",
    "city": {
      "cityId": "5b1e3f84eea2f50001445903",
      "country": "Thailand",
      "city": "Ratchaprapha Dam",
      "timezone": "Asia/Bangkok"
    },
    "latitude": 8.9771424,
    "longitude": 98.8203759
  },
  {
    "stationId": "5ec3af513704be5d62636539",
    "name": "Khao Sok National Park - Any hotel",
    "address": "Khao Sok, Phanom District, Chang Wat Surat Thani, Thailand",
    "city": {
      "cityId": "5a85abdee8f1410005d78a44",
      "country": "Thailand",
      "city": "Khao Sok",
      "timezone": "Asia/Bangkok"
    },
    "latitude": 8.9154549,
    "longitude": 98.52840409999999
  },
  {
    "stationId": "5ec39eb51fa0ae14e466cbb0",
    "name": "Hoa Ban Lalastay",
    "address": "Hoa Ban Lalastay, Bản Lác, Chiềng Châu, Mai Châu, Hòa Bình, Vietnam",
    "city": {
      "cityId": "5b1ce14beea2f50001445308",
      "country": "Vietnam",
      "city": "Mai Chau",
      "timezone": "Asia/Ho_Chi_Minh"
    },
    "latitude": 20.6485698,
    "longitude": 105.0681304
  },
  {
    "stationId": "5ebeeda3c609aa12a24a89a6",
    "name": "Nueva Estación Terminal de Ómnibus Villa Gesell",
    "address": "Nueva Estación Terminal de Ómnibus Villa Gesell, Acceso Sur, Villa Gesell, Buenos Aires, Argentina",
    "city": {
      "cityId": "5ebeed364eaef1c09d655f00",
      "country": "Argentina",
      "city": "Villa Gesell",
      "timezone": "America/Argentina/Buenos_Aires"
    },
    "latitude": -37.2820056,
    "longitude": -57.0070159
  },
  {
    "stationId": "5ebc60ea9100c14ce372910d",
    "name": "Terminal De Ómnibus de Mendoza",
    "address": "Terminal De Ómnibus de Mendoza, Av. Gdor. Ricardo Videla 1365, Mendoza, Argentina",
    "city": {
      "cityId": "5ebc5ff9cbf434c339e4d99a",
      "country": "Argentina",
      "city": "Mendoza",
      "timezone": "America/Argentina/Mendoza"
    },
    "latitude": -32.8952762,
    "longitude": -68.8313299
  },
  {
    "stationId": "5ebc61b0cbf43402f8e4d9a4",
    "name": "Terminal De Omnibus San Rafael",
    "address": "Telles Meneses 148, M5602 San Rafael, Mendoza, Argentina",
    "city": {
      "cityId": "5ebc603db32cdbc35491128e",
      "country": "Argentina",
      "city": "San Rafael",
      "timezone": "America/Argentina/Mendoza"
    },
    "latitude": -34.6052665,
    "longitude": -68.3269131
  },
  {
    "stationId": "5ebbfa873669c57fec1a1e96",
    "name": "Terminal de Omnibus Córdoba",
    "address": "Bv. Juan Domingo Perón 380, X5000 Córdoba, Argentina",
    "city": {
      "cityId": "5ebbf9cccbf434528be4d055",
      "country": "Argentina",
      "city": "Cordoba",
      "timezone": "America/Argentina/Cordoba"
    },
    "latitude": -31.4225991,
    "longitude": -64.1754112
  },
  {
    "stationId": "5ebd6bf9556a3d5d92f8b325",
    "name": "Terminal de Ómnibus de Cafayate",
    "address": "Terminal de Omnibus de Cafayate, Cafayate, Salta, Argentina",
    "city": {
      "cityId": "5ebd6b7eb40b8b3481d0f55f",
      "country": "Argentina",
      "city": "Cafayate",
      "timezone": "America/Argentina/Salta"
    },
    "latitude": -26.0653841,
    "longitude": -65.97267459999999
  },
  {
    "stationId": "5ec15d6701c68e68a1e10382",
    "name": "DLTB Co Pasay Terminal",
    "address": "DLTB Bus Co., Epifanio de los Santos Ave, 150, Pasay, 1300 Metro Manila, Philippines",
    "city": {
      "cityId": "58a9d292a0ab550005243d46",
      "country": "Philippines",
      "city": "Manila",
      "timezone": "Asia/Manila"
    },
    "latitude": 14.537569,
    "longitude": 121.00384
  },
  {
    "stationId": "5ec156855ffd6c59f55e135c",
    "name": "DLTB Co Daet Terminal",
    "address": "DLTB Co Daet Terminal, AH26, Daet, Camarines Norte, Philippines",
    "city": {
      "cityId": "5ec15669229db15ab9e0db3e",
      "country": "Philippines",
      "city": "Daet, Camarines Norte",
      "timezone": "Asia/Manila"
    },
    "latitude": 14.108933,
    "longitude": 122.94698
  },
  {
    "stationId": "5be04abd644c7541a7b5e542",
    "name": "Makati - Any Hotel",
    "address": "Makati, Metro Manila, Philippines",
    "city": {
      "cityId": "5ec1454001c68e63d3e10040",
      "country": "Philippines",
      "city": "Makati, Manila",
      "timezone": "Asia/Manila"
    },
    "latitude": 14.554729,
    "longitude": 121.0244452
  },
  {
    "stationId": "5ec14383e8fd2d99971df419",
    "name": "536 Duong Dien Bien Phu",
    "address": "536 Đường Điện Biên Phủ, TT. Sa Pa, Sa Pa, Lào Cai, Vietnam",
    "city": {
      "cityId": "58bbf19db7afab000551dfc6",
      "country": "Vietnam",
      "city": "Sapa",
      "timezone": "Asia/Ho_Chi_Minh"
    },
    "latitude": 22.3402255,
    "longitude": 103.8466542
  },
  {
    "stationId": "5ec14117229db13249e0d7f8",
    "name": "115 Pho Lang Yen",
    "address": "115 Phố Lãng Yên, Thanh Lương, Hai Bà Trưng, Hà Nội 100000, Vietnam",
    "city": {
      "cityId": "58ade15cd8638d00070c04b2",
      "country": "Vietnam",
      "city": "Hanoi",
      "timezone": "Asia/Ho_Chi_Minh"
    },
    "latitude": 21.0082944,
    "longitude": 105.8644167
  },
  {
    "stationId": "5ec1381401c68e946de0fe6d",
    "name": "Cai Rong (Van Don) Harbour",
    "address": "Cảng Cái Rồng - Cai Rong (Van Don) Harbour, Khu 9, Thị trấn Cái Rồng (Cai Rong Town), Quảng Ninh 202330, Vietnam",
    "city": {
      "cityId": "5ec136bdb63a0450c0a2c8f5",
      "country": "Vietnam",
      "city": "Cai Rong",
      "timezone": "Asia/Ho_Chi_Minh"
    },
    "latitude": 21.0605601,
    "longitude": 107.4296458
  },
  {
    "stationId": "5ec1360001c68eed21e0fe41",
    "name": "Hon Gai High School",
    "address": "Hon Gai High School, 251 Nguyễn Văn Cừ, Hồng Hải, Thành phố Hạ Long, Quảng Ninh, Vietnam",
    "city": {
      "cityId": "58ade161b626ad00060bd174",
      "country": "Vietnam",
      "city": "Halong Bay",
      "timezone": "Asia/Ho_Chi_Minh"
    },
    "latitude": 20.9560789,
    "longitude": 107.1003096
  },
  {
    "stationId": "5ec134eeb63a04b574a2c8af",
    "name": "72A Nguyen Trai · Royal City",
    "address": "Royal City, 72A Nguyễn Trãi, Thượng Đình, Thanh Xuân, Hà Nội, Vietnam",
    "city": {
      "cityId": "58ade15cd8638d00070c04b2",
      "country": "Vietnam",
      "city": "Hanoi",
      "timezone": "Asia/Ho_Chi_Minh"
    },
    "latitude": 21.0006925,
    "longitude": 105.8160726
  },
  {
    "stationId": "5ec124cb5ffd6c62e85e0b2a",
    "name": "682 Thao Nguyen",
    "address": "Xuân Tráng Limousine, 682 Thảo Nguyên, Phiêng Luông, Mộc Châu, Sơn La, Vietnam",
    "city": {
      "cityId": "5b16b4d2425af900013ac1c2",
      "country": "Vietnam",
      "city": "Moc Chau",
      "timezone": "Asia/Ho_Chi_Minh"
    },
    "latitude": 20.8366634,
    "longitude": 104.6866983
  },
  {
    "stationId": "5ec121c1229db1ddc5e0d1a5",
    "name": "35 D. Nguyen Tuan",
    "address": "Xe Xuân Tráng, 35 Đ. Nguyễn Tuân, Thanh Xuân Trung, Thanh Xuân, Hà Nội 100000, Vietnam",
    "city": {
      "cityId": "58ade15cd8638d00070c04b2",
      "country": "Vietnam",
      "city": "Hanoi",
      "timezone": "Asia/Ho_Chi_Minh"
    },
    "latitude": 20.994574,
    "longitude": 105.806247
  },
  {
    "stationId": "5ec113a201c68e2423e0f605",
    "name": "Sofia Tam Dao Hotel & Spa",
    "address": "Sofia Tam Dao Hotel & Spa, Tam Dao, Tam Đảo District, Vinh Phuc Province, Vietnam",
    "city": {
      "cityId": "5ec1138e229db14346e0cef1",
      "country": "Vietnam",
      "city": "Tam Dao, Vinh Phuc",
      "timezone": "Asia/Ho_Chi_Minh"
    },
    "latitude": 21.4571443,
    "longitude": 105.6454498
  },
  {
    "stationId": "5ec111b201c68e2277e0f5dd",
    "name": "25 T1 Hoang Dao Thuy",
    "address": "Xe Green Limousine, 25 T1 Hoàng Đạo Thúy, Trung Hoà, Thanh Xuân, Hà Nội, Vietnam",
    "city": {
      "cityId": "58ade15cd8638d00070c04b2",
      "country": "Vietnam",
      "city": "Hanoi",
      "timezone": "Asia/Ho_Chi_Minh"
    },
    "latitude": 21.0073758,
    "longitude": 105.8024514
  },
  {
    "stationId": "5e8477f88f721e016b962bcb",
    "name": "Jose Maria Cordova International Airport (MDE)",
    "address": "José María Córdova International Airport, Rionegro, Antioquia, Colombia",
    "city": {
      "cityId": "5cceb23dc36225aade112f26",
      "country": "Colombia",
      "city": "Medellin",
      "timezone": "America/Bogota"
    },
    "latitude": 6.170763399999999,
    "longitude": -75.4276201
  },
  {
    "stationId": "5ebd5f0db0292c3a2ca15de7",
    "name": "La Calera - Any hotel",
    "address": "La Calera, Cundinamarca, Colombia",
    "city": {
      "cityId": "5ebd5ef5b40b8b198dd0f4b8",
      "country": "Colombia",
      "city": "La Calera",
      "timezone": "America/Bogota"
    },
    "latitude": 4.7191983,
    "longitude": -73.9690753
  },
  {
    "stationId": "5eb00c4f4b1a6c54ad02d76c",
    "name": "Chia - Any hotel",
    "address": "Chia, Cundinamarca, Colombia",
    "city": {
      "cityId": "5eb00c0fc83120f97818fc41",
      "country": "Colombia",
      "city": "Chia",
      "timezone": "America/Bogota"
    },
    "latitude": 4.864758,
    "longitude": -74.05091800000001
  },
  {
    "stationId": "5ebd5bc0556a3d3a21f8b254",
    "name": "Villa de Leyva - Any hotel",
    "address": "Villa de Leyva, Boyaca, Colombia",
    "city": {
      "cityId": "5ebd5baab0292c1b92a15d85",
      "country": "Colombia",
      "city": "Villa de Leyva",
      "timezone": "America/Bogota"
    },
    "latitude": 5.636499,
    "longitude": -73.527058
  },
  {
    "stationId": "5ebd587d556a3d03f4f8b24a",
    "name": "Villavicencio - Any hotel",
    "address": "Villavicencio, Meta, Colombia",
    "city": {
      "cityId": "5ebd5862d1ef7474bb8fbad0",
      "country": "Colombia",
      "city": "Villavicencio",
      "timezone": "America/Bogota"
    },
    "latitude": 4.1491688,
    "longitude": -73.6285475
  },
  {
    "stationId": "5ebd473fb40b8b4607d0f20e",
    "name": "El Dorado Luis Carlos Galan Sarmiento International Airport (BOG)",
    "address": "El Dorado Luis Carlos Galan Sarmiento International Airport, Ac. 26 #103-9, Bogotá, Colombia",
    "city": {
      "cityId": "5cab041e2a307eac4cea0cf2",
      "country": "Colombia",
      "city": "Bogota",
      "timezone": "America/Bogota"
    },
    "latitude": 4.6971504,
    "longitude": -74.14110459999999
  },
  {
    "stationId": "5ebd22f2b0292ccb70a15a1d",
    "name": "Tagaytay - Any hotel in Tagaytay Olivarez",
    "address": "Tagaytay Olivarez, Cavite, Philippines",
    "city": {
      "cityId": "5ebd22c1b40b8b0822d0efe3",
      "country": "Philippines",
      "city": "Tagaytay",
      "timezone": "Asia/Manila"
    },
    "latitude": 14.1181808,
    "longitude": 120.9612536
  },
  {
    "stationId": "5ebd230fb0292c3704a15a1e",
    "name": "Tagaytay Olivarez Plaza Bus Stop",
    "address": "Tagaytay Olivarez Plaza Bus Stop, Emilio Aguinaldo Hwy, Silang Junction North, Tagaytay, Cavite, Philippines",
    "city": {
      "cityId": "5ebd22c1b40b8b0822d0efe3",
      "country": "Philippines",
      "city": "Tagaytay",
      "timezone": "Asia/Manila"
    },
    "latitude": 14.1181808,
    "longitude": 120.9612536
  },
  {
    "stationId": "5ebd1397b40b8bdbced0ee78",
    "name": "7 Cua Dong",
    "address": "7 Cửa Đông, Hàng Bồ, Hoàn Kiếm, Hà Nội, Vietnam",
    "city": {
      "cityId": "58ade15cd8638d00070c04b2",
      "country": "Vietnam",
      "city": "Hanoi",
      "timezone": "Asia/Ho_Chi_Minh"
    },
    "latitude": 21.0344376,
    "longitude": 105.8466522
  },
  {
    "stationId": "5ebd05da84b9557b196edcb5",
    "name": "Oudong - Any hotel",
    "address": "Oudong, Cambodia",
    "city": {
      "cityId": "5ebd05c3cbf4345f8ee4ead4",
      "country": "Cambodia",
      "city": "Oudong",
      "timezone": "Asia/Phnom_Penh"
    },
    "latitude": 11.8160695,
    "longitude": 104.7375102
  },
  {
    "stationId": "5ebcf05eb32cdb090c912015",
    "name": "Tan Kim Chi · Hoa Minh",
    "address": "Nhà Xe Tân Kim Chi, 75 Thanh Tịnh, Hoà Minh, Liên Chiểu, Đà Nẵng 550000, Vietnam",
    "city": {
      "cityId": "58e8ac3edf758b0008ade6a7",
      "country": "Vietnam",
      "city": "Da Nang",
      "timezone": "Asia/Ho_Chi_Minh"
    },
    "latitude": 16.0606155,
    "longitude": 108.1712535
  },
  {
    "stationId": "5ebcedb03669c5bcb81a3948",
    "name": "Trạm Xăng 24 Petrol Station",
    "address": "Trạm Xăng 24, Huong Ho, Hương Trà District, Thua Thien Hue, Vietnam",
    "city": {
      "cityId": "58e8ac32df758b0008ade6a6",
      "country": "Vietnam",
      "city": "Hue",
      "timezone": "Asia/Ho_Chi_Minh"
    },
    "latitude": 16.4413245,
    "longitude": 107.5168546
  },
  {
    "stationId": "5ebc06203669c517481a2138",
    "name": "Kampong Speu - Any hotel",
    "address": "Kampong Speu Province, Cambodia",
    "city": {
      "cityId": "5ebc0606b32cdb7df3910bbf",
      "country": "Cambodia",
      "city": "Kampong Speu",
      "timezone": "Asia/Phnom_Penh"
    },
    "latitude": 11.6155109,
    "longitude": 104.3791912
  },
  {
    "stationId": "5ebbec21b32cdbb0e6910831",
    "name": "Chong Chom Border Crossing",
    "address": "Chong Chom Border Crossing, Samraong, Thailand",
    "city": {
      "cityId": "5ebbebab9100c187ee728617",
      "country": "Cambodia",
      "city": "O Smach",
      "timezone": "Asia/Phnom_Penh"
    },
    "latitude": 14.4347529,
    "longitude": 103.7000516
  },
  {
    "stationId": "5ebbd35709e6bb1f75057dc7",
    "name": "station test 21",
    "address": "jjj",
    "city": {
      "cityId": "5ebaa552903e2a73603d6b09",
      "country": "Afghanistan",
      "city": "test city 12 5 - liran",
      "timezone": "Europe/Mariehamn"
    },
    "latitude": 40.6579364,
    "longitude": -74.1862562
  },
  {
    "stationId": "5ebbb0ae72ff94777808f286",
    "name": "Rawai - Any hotel",
    "address": "Rawai Beach, Phuket, Thailand",
    "city": {
      "cityId": "5a3928dc1fa0e60005be679d",
      "country": "Thailand",
      "city": "Phuket",
      "timezone": "Asia/Bangkok"
    },
    "latitude": 7.771886899999998,
    "longitude": 98.3217411
  },
  {
    "stationId": "5ebbc7d972ff94aa2e08f603",
    "name": "Patong - Any hotel",
    "address": "Patong, Phuket, Thailand",
    "city": {
      "cityId": "5a3928dc1fa0e60005be679d",
      "country": "Thailand",
      "city": "Phuket",
      "timezone": "Asia/Bangkok"
    },
    "latitude": 7.8965763,
    "longitude": 98.30210439999999
  },
  {
    "stationId": "5ebbb18b09e6bb9844057893",
    "name": "Pak Meng Tourist Pier",
    "address": "Pak Meng Tourist Pier, Trang, Thailand",
    "city": {
      "cityId": "5ac1f6643d2ca800015e2e78",
      "country": "Thailand",
      "city": "Trang",
      "timezone": "Asia/Bangkok"
    },
    "latitude": 7.507076199999999,
    "longitude": 99.31169729999999
  },
  {
    "stationId": "5ebbb10672ff94a3e808f287",
    "name": "Nai Harn Beach - Any hotel",
    "address": "Nai Harn Beach, Phuket, Thailand",
    "city": {
      "cityId": "5a3928dc1fa0e60005be679d",
      "country": "Thailand",
      "city": "Phuket",
      "timezone": "Asia/Bangkok"
    },
    "latitude": 7.781197700000001,
    "longitude": 98.3117041
  },
  {
    "stationId": "5ebbb08d682214d0ddd26da1",
    "name": "Cape Panwa - Any hotel",
    "address": "Cape Panwa, Phuket, Thailand",
    "city": {
      "cityId": "5a3928dc1fa0e60005be679d",
      "country": "Thailand",
      "city": "Phuket",
      "timezone": "Asia/Bangkok"
    },
    "latitude": 7.8074116,
    "longitude": 98.409148
  },
  {
    "stationId": "5ebbb02372ff947c6708f269",
    "name": "Kamala Beach - Any hotel",
    "address": "Kamala Beach, Phuket, Thailand",
    "city": {
      "cityId": "5a3928dc1fa0e60005be679d",
      "country": "Thailand",
      "city": "Phuket",
      "timezone": "Asia/Bangkok"
    },
    "latitude": 7.956922100000001,
    "longitude": 98.28309829999999
  },
  {
    "stationId": "5ebbaffa682214ccd3d26d45",
    "name": "Surin Beach - Any hotel",
    "address": "Surin Beach, Phuket, Thailand",
    "city": {
      "cityId": "5a3928dc1fa0e60005be679d",
      "country": "Thailand",
      "city": "Phuket",
      "timezone": "Asia/Bangkok"
    },
    "latitude": 7.975473099999999,
    "longitude": 98.2784667
  },
  {
    "stationId": "5ebbafa9d0a039a3a563fc23",
    "name": "Bang Tao Beach - Any hotel",
    "address": "Bang Tao Beach, Phuket, Thailand",
    "city": {
      "cityId": "5a3928dc1fa0e60005be679d",
      "country": "Thailand",
      "city": "Phuket",
      "timezone": "Asia/Bangkok"
    },
    "latitude": 8.002546299999999,
    "longitude": 98.2926317
  },
  {
    "stationId": "5ebbaf5b09e6bb7a34057850",
    "name": "Layan - Any hotel",
    "address": "Layan, Phuket, Thailand",
    "city": {
      "cityId": "5a3928dc1fa0e60005be679d",
      "country": "Thailand",
      "city": "Phuket",
      "timezone": "Asia/Bangkok"
    },
    "latitude": 8.037048799999999,
    "longitude": 98.2839587
  },
  {
    "stationId": "5ebbaecc6dd52d9503b96d0f",
    "name": "Laguna - Any hotel",
    "address": "Laguna, Phuket, Thailand",
    "city": {
      "cityId": "5a3928dc1fa0e60005be679d",
      "country": "Thailand",
      "city": "Phuket",
      "timezone": "Asia/Bangkok"
    },
    "latitude": 8.001776999999999,
    "longitude": 98.29407599999999
  },
  {
    "stationId": "5ebb9fb7d0a039f60763fb3b",
    "name": "liran3",
    "address": "jjj",
    "city": {
      "cityId": "5ebaa2b81071e9d62753d3dc",
      "country": "Argentina",
      "city": "Mar del Plata",
      "timezone": "America/Argentina/Buenos_Aires"
    },
    "latitude": 40.6579364,
    "longitude": -74.1862562
  },
  {
    "stationId": "5ebb9f9a682214070ed26bc3",
    "name": "liran2",
    "address": "kk",
    "city": {
      "cityId": "5eb81aaf6321990e5a218a4d",
      "country": "Dominican Republic",
      "city": "Santiago De Los Caballeros",
      "timezone": "America/Santo_Domingo"
    },
    "latitude": 38.958828,
    "longitude": -95.2414682
  },
  {
    "stationId": "5ebabfb91faea770328297d1",
    "name": "Naiyang Beach - Any hotel",
    "address": "Naiyang Beach, Phuket, Thailand",
    "city": {
      "cityId": "5a3928dc1fa0e60005be679d",
      "country": "Thailand",
      "city": "Phuket",
      "timezone": "Asia/Bangkok"
    },
    "latitude": 8.0898576,
    "longitude": 98.2974795
  },
  {
    "stationId": "5ebaa3156baa99bbcb71890a",
    "name": "MDQ Bus Terminal",
    "address": "MDQ Bus Terminal, Av. Pedro Luro 4524, Mar del Plata, Buenos Aires, Argentina",
    "city": {
      "cityId": "5ebaa2b81071e9d62753d3dc",
      "country": "Argentina",
      "city": "Mar del Plata",
      "timezone": "America/Argentina/Buenos_Aires"
    },
    "latitude": -37.9881042,
    "longitude": -57.5650073
  },
  {
    "stationId": "5b154a0a2c0aba00012fb6f9",
    "name": "Rassada Pier Phuket",
    "address": "Rassada Pier, Tambon Ratsada, Amphoe Mueang Phuket, Chang Wat Phuket 83000, Thailand",
    "city": {
      "cityId": "5a3928dc1fa0e60005be679d",
      "country": "Thailand",
      "city": "Phuket",
      "timezone": "Asia/Bangkok"
    },
    "latitude": 7.872211900000001,
    "longitude": 98.4143153
  },
  {
    "stationId": "5ae1c0a535a7c90001c27f12",
    "name": "Rayong Bus Terminal 1",
    "address": "New Bus Terminal Rayong (Terminal 1), Thap Ma, Mueang Rayong District, Rayong 21000, Thailand",
    "city": {
      "cityId": "5b03c6c9d089030001bf9757",
      "country": "Thailand",
      "city": "Rayong",
      "timezone": "Asia/Bangkok"
    },
    "latitude": 12.7012082,
    "longitude": 101.2157978
  },
  {
    "stationId": "5b03c70b2dad6c000168a24b",
    "name": "Rayong Bus Terminal 2",
    "address": "Rayong Bus Terminal 2, 155/195 ซอย หมู่บ้านเพลินใจ 5 Thap Ma, Mueang Rayong District, Rayong 21000, Thailand",
    "city": {
      "cityId": "5b03c6c9d089030001bf9757",
      "country": "Thailand",
      "city": "Rayong",
      "timezone": "Asia/Bangkok"
    },
    "latitude": 12.6991443,
    "longitude": 101.2173642
  },
  {
    "stationId": "5eb95c798b4e597d3d3a8955",
    "name": "Terminal de Omnibus Retiro",
    "address": "Terminal de Omnibus Retiro, Av. Dr. José María Ramos Mejía 1560-1556, C1104AJP, Buenos Aires, Argentina",
    "city": {
      "cityId": "5e37efeae1265e20eaced6c4",
      "country": "Argentina",
      "city": "Buenos Aires",
      "timezone": "America/Argentina/Buenos_Aires"
    },
    "latitude": -34.5887905,
    "longitude": -58.3726761
  },
  {
    "stationId": "5eb94596c398c558218177b8",
    "name": "Pattaya Beach (in front of The Steak House)",
    "address": "F8P3+GP Ko Tarutao, Mueang Satun District, Satun, Thailand",
    "city": {
      "cityId": "5b0fd18b698ccb0001219d49",
      "country": "Thailand",
      "city": "Koh Lipe",
      "timezone": "Asia/Bangkok"
    },
    "latitude": 6.486312499999999,
    "longitude": 99.3043125
  },